[
  {
    "name": "Stargate Abilene (Flagship Campus)",
    "operator": "OpenAI / Oracle / SoftBank",
    "lat": 32.4487,
    "lon": -99.7331,
    "power_mw": 1200,
    "status": "construction",
    "gpu_count": 450000,
    "gpu_type": "NVIDIA GB200",
    "year": 2026,
    "source_url": "https://www.cnbc.com/2025/09/23/openai-first-data-center-in-500-billion-stargate-project-up-in-texas.html",
    "notes": "Flagship Stargate site. First 2 buildings (400 MW) operational Oct 2025; full 8-building 1.2 GW campus by mid-2026. Built by Crusoe Energy on Lancium Clean Campus. 4M sq ft total."
  },
  {
    "name": "Stargate Shackelford County",
    "operator": "OpenAI / Oracle",
    "lat": 32.7357,
    "lon": -99.354,
    "power_mw": 1500,
    "status": "announced",
    "gpu_count": null,
    "gpu_type": null,
    "year": 2027,
    "source_url": "https://openai.com/index/five-new-stargate-sites/",
    "notes": "One of 5 new Stargate sites announced Sep 2025. Oracle-led. Part of 5.5 GW expansion tranche with Dona Ana and Midwest sites."
  },
  {
    "name": "Stargate Milam County",
    "operator": "OpenAI / SoftBank",
    "lat": 30.7596,
    "lon": -96.878,
    "power_mw": 1500,
    "status": "announced",
    "gpu_count": null,
    "gpu_type": null,
    "year": 2027,
    "source_url": "https://openai.com/index/five-new-stargate-sites/",
    "notes": "SoftBank-led Stargate site in central Texas. Can scale to 1.5 GW over 18 months from groundbreaking."
  },
  {
    "name": "Stargate Dona Ana County",
    "operator": "OpenAI / Oracle",
    "lat": 32.3526,
    "lon": -106.7474,
    "power_mw": 1500,
    "status": "announced",
    "gpu_count": null,
    "gpu_type": null,
    "year": 2027,
    "source_url": "https://openai.com/index/five-new-stargate-sites/",
    "notes": "Oracle-led Stargate site in southern New Mexico near Las Cruces. Part of 5.5 GW expansion."
  },
  {
    "name": "Stargate Lordstown",
    "operator": "OpenAI / SoftBank",
    "lat": 41.1656,
    "lon": -80.8684,
    "power_mw": 1500,
    "status": "construction",
    "gpu_count": null,
    "gpu_type": null,
    "year": 2027,
    "source_url": "https://businessjournaldaily.com/lordstown-data-center-to-be-operational-next-year/",
    "notes": "SoftBank-led site at former Lordstown Motors plant in Ohio. Groundbreaking complete, expected operational 2027."
  },
  {
    "name": "Stargate Lighthouse (Port Washington, WI)",
    "operator": "OpenAI / Oracle / Vantage",
    "lat": 43.3876,
    "lon": -87.8754,
    "power_mw": 902,
    "status": "construction",
    "gpu_count": null,
    "gpu_type": null,
    "year": 2028,
    "source_url": "https://vantage-dc.com/news/openai-oracle-and-vantage-data-centers-announce-stargate-data-center-site-in-wisconsin/",
    "notes": "Codenamed Lighthouse. 4 data centers on 674 acres, 902 MW IT capacity. $15B investment. WEC Energy providing ~2 GW total power. Completion 2028."
  },
  {
    "name": "xAI Colossus (Memphis)",
    "operator": "xAI",
    "lat": 35.1495,
    "lon": -90.049,
    "power_mw": 2000,
    "status": "operational",
    "gpu_count": 555000,
    "gpu_type": "NVIDIA H100/H200/GB200 mix",
    "year": 2024,
    "source_url": "https://x.ai/colossus",
    "notes": "World's largest AI training facility. 150K H100 + 50K H200 + 30K GB200 GPUs. Three buildings across Memphis/Southaven. Expanded to 2 GW in Jan 2026. Roadmap to 1M GPUs."
  },
  {
    "name": "xAI MACROHARDRR (Southaven, MS)",
    "operator": "xAI",
    "lat": 34.9618,
    "lon": -89.9787,
    "power_mw": 1000,
    "status": "construction",
    "gpu_count": null,
    "gpu_type": null,
    "year": 2026,
    "source_url": "https://www.datacenterdynamics.com/en/news/xai-confirms-new-data-center-in-mississippi-elon-musk-pledges-20bn-investment-in-state/",
    "notes": "Third xAI data center in greater Memphis area. $20B investment, largest economic development in MS history. Operations expected Feb 2026. Near xAI-owned power plant."
  },
  {
    "name": "Meta Hyperion (Richland Parish, LA)",
    "operator": "Meta",
    "lat": 32.416,
    "lon": -91.7137,
    "power_mw": 2000,
    "status": "construction",
    "gpu_count": null,
    "gpu_type": null,
    "year": 2030,
    "source_url": "https://fortune.com/2025/08/24/meta-data-center-rural-louisiana-framework-ai-power-boom/",
    "notes": "Massive 4M+ sq ft AI supercluster on 2,250 acres. Phase 1 is 2 GW, expandable to 5 GW. $10B initial investment, $27B JV with Blue Owl. Construction started late 2024. Entergy building new gas plants."
  },
  {
    "name": "Meta Prometheus (New Albany, OH)",
    "operator": "Meta",
    "lat": 40.0812,
    "lon": -82.8087,
    "power_mw": 1000,
    "status": "construction",
    "gpu_count": null,
    "gpu_type": null,
    "year": 2026,
    "source_url": "https://www.nbc4i.com/news/local-news/new-albany/meet-prometheus-worlds-highest-capacity-data-center-slated-to-open-in-ohio-in-2026/",
    "notes": "World's first 1 GW data center when complete. Purpose-built for AI training/serving. Nuclear power deals with TerraPower, Oklo, Vistra. Due online 2026."
  },
  {
    "name": "Meta El Paso Data Center",
    "operator": "Meta",
    "lat": 31.7619,
    "lon": -106.485,
    "power_mw": 1000,
    "status": "construction",
    "gpu_count": null,
    "gpu_type": null,
    "year": 2027,
    "source_url": "https://about.fb.com/news/2025/10/metas-new-ai-optimized-data-center-el-paso/",
    "notes": "AI-optimized data center scalable to 1 GW. Initial $1.5B investment growing to $10B+. Meta's 29th data center."
  },
  {
    "name": "Meta Beaver Dam Data Center",
    "operator": "Meta",
    "lat": 43.4578,
    "lon": -88.8373,
    "power_mw": 300,
    "status": "construction",
    "gpu_count": null,
    "gpu_type": null,
    "year": 2027,
    "source_url": "https://datacenters.atmeta.com/2025/11/hello-beaver-dam/",
    "notes": "Meta's 26th US data center, 30th worldwide. Located in Beaver Dam, Wisconsin."
  },
  {
    "name": "Microsoft Fairwater (Mount Pleasant, WI)",
    "operator": "Microsoft",
    "lat": 42.7261,
    "lon": -87.8364,
    "power_mw": 400,
    "status": "construction",
    "gpu_count": null,
    "gpu_type": null,
    "year": 2026,
    "source_url": "https://blogs.microsoft.com/on-the-issues/2025/09/18/made-in-wisconsin-the-worlds-most-powerful-ai-datacenter/",
    "notes": "Described as world's most powerful AI datacenter. Phase 1 at 400 MW, scaling to 900 MW. $3.3B initial investment. 1.2M sq ft across 3 buildings on 315 acres."
  },
  {
    "name": "Microsoft Mount Pleasant Phase 2",
    "operator": "Microsoft",
    "lat": 42.72,
    "lon": -87.83,
    "power_mw": 500,
    "status": "planned",
    "gpu_count": null,
    "gpu_type": null,
    "year": 2028,
    "source_url": "https://www.cnbc.com/2025/09/18/microsoft-wisconsin-data-center.html",
    "notes": "Second datacenter of similar size/scale to Fairwater. Additional $4B investment bringing WI total to $7B+. Combined sites could reach 9 GW at full build."
  },
  {
    "name": "Microsoft Cheyenne Data Center",
    "operator": "Microsoft",
    "lat": 41.14,
    "lon": -104.8202,
    "power_mw": 200,
    "status": "construction",
    "gpu_count": null,
    "gpu_type": null,
    "year": 2026,
    "source_url": "https://www.datacenterdynamics.com/en/news/microsoft-breaks-ground-on-data-center-campus-in-cheyenne-wyoming/",
    "notes": "North Range Business Park campus. 200 MW capacity. Completion targeted early 2026. Powered partly by Black Hills Energy wind projects."
  },
  {
    "name": "Microsoft Phoenix/Goodyear AZ Campus",
    "operator": "Microsoft",
    "lat": 33.4373,
    "lon": -112.3588,
    "power_mw": 300,
    "status": "operational",
    "gpu_count": null,
    "gpu_type": null,
    "year": 2024,
    "source_url": "https://local.microsoft.com/communities/americas/greater-phoenix/",
    "notes": "Multiple facilities in El Mirage and Goodyear, AZ. Part of Microsoft's broader Azure cloud and AI infrastructure in the West Valley."
  },
  {
    "name": "Microsoft Plano/Chicago IL Campus",
    "operator": "Microsoft",
    "lat": 41.6631,
    "lon": -88.5308,
    "power_mw": 250,
    "status": "construction",
    "gpu_count": null,
    "gpu_type": null,
    "year": 2026,
    "source_url": "https://azure.microsoft.com/en-us/blog/microsofts-commitment-to-supporting-cloud-infrastructure-demand-in-the-united-states/",
    "notes": "500 acres acquired in Plano, IL area (Kendall County). Part of North Central US region expansion with additional availability zones by end of 2026."
  },
  {
    "name": "Amazon Project Rainier (New Carlisle, IN)",
    "operator": "Amazon / AWS",
    "lat": 41.6939,
    "lon": -86.5098,
    "power_mw": 2200,
    "status": "operational",
    "gpu_count": 500000,
    "gpu_type": "AWS Trainium2",
    "year": 2025,
    "source_url": "https://www.cnbc.com/2025/10/29/amazon-opens-11-billion-ai-data-center-project-rainier-in-indiana.html",
    "notes": "World's largest cluster of non-Nvidia AI chips. 1,200 acres, 30 buildings planned at 2.2 GW. 7 buildings operational Oct 2025. Built for Anthropic. $11B initial, $15B total IN investment."
  },
  {
    "name": "AWS Mattermeade (Caroline/Spotsylvania, VA)",
    "operator": "Amazon / AWS",
    "lat": 38.1838,
    "lon": -77.5244,
    "power_mw": 770,
    "status": "construction",
    "gpu_count": null,
    "gpu_type": null,
    "year": 2027,
    "source_url": "https://www.blackridgeresearch.com/blog/latest-list-top-largest-upcoming-new-data-center-projects-aws-amazon-web-services",
    "notes": "1,143 acres across 13 parcels near I-95. 11 two-story data center buildings planned. 770 MW operational capacity target by 2027."
  },
  {
    "name": "AWS Vicksburg (Mississippi)",
    "operator": "Amazon / AWS",
    "lat": 32.3526,
    "lon": -90.8779,
    "power_mw": 300,
    "status": "construction",
    "gpu_count": null,
    "gpu_type": null,
    "year": 2027,
    "source_url": "https://www.blackridgeresearch.com/blog/latest-list-top-largest-upcoming-new-data-center-projects-aws-amazon-web-services",
    "notes": "$3B investment, largest private-sector investment in Warren County history. Part of AWS expansion into new states."
  },
  {
    "name": "AWS Arlington Oregon Campus",
    "operator": "Amazon / AWS",
    "lat": 45.7232,
    "lon": -120.1948,
    "power_mw": 400,
    "status": "planned",
    "gpu_count": null,
    "gpu_type": null,
    "year": 2027,
    "source_url": "https://baxtel.com/data-centers/amazon-aws",
    "notes": "400+ acres secured in Arlington, OR for future data center campus. Adds to existing Oregon footprint in Morrow and Umatilla counties."
  },
  {
    "name": "AWS Northern Virginia (Ashburn cluster)",
    "operator": "Amazon / AWS",
    "lat": 39.0438,
    "lon": -77.4874,
    "power_mw": 1000,
    "status": "operational",
    "gpu_count": null,
    "gpu_type": null,
    "year": 2023,
    "source_url": "https://baxtel.com/data-center/aws-us-east-n-virginia",
    "notes": "AWS US East (N. Virginia) is AWS's largest region. Dozens of facilities in Loudoun/Prince William counties. Expanding into Maryland with new AZ in 2026."
  },
  {
    "name": "Google Council Bluffs Iowa Campus",
    "operator": "Google",
    "lat": 41.2619,
    "lon": -95.8608,
    "power_mw": 400,
    "status": "operational",
    "gpu_count": null,
    "gpu_type": "Google TPU",
    "year": 2009,
    "source_url": "https://www.datacenterfrontier.com/hyperscale/article/55093750/google-continues-to-invest-in-iowa-with-another-1-billion-planned-for-its-council-bluffs-campus",
    "notes": "Operational since 2009, continuously expanded. $6.8B invested in Iowa to date. 407 MW wind power. $7B expansion pledge with new Cedar Rapids campus."
  },
  {
    "name": "Google The Dalles Oregon Campus",
    "operator": "Google",
    "lat": 45.5946,
    "lon": -121.1787,
    "power_mw": 200,
    "status": "operational",
    "gpu_count": null,
    "gpu_type": "Google TPU",
    "year": 2006,
    "source_url": "https://www.constructiondive.com/news/google-whiting-turner-oregon-data-center/705938/",
    "notes": "Google's first owned data center, operational since 2006. $1.8B+ invested. $600M expansion underway with new 290K sq ft building."
  },
  {
    "name": "Google Mayes County Oklahoma Campus",
    "operator": "Google",
    "lat": 36.3087,
    "lon": -95.3161,
    "power_mw": 200,
    "status": "operational",
    "gpu_count": null,
    "gpu_type": "Google TPU",
    "year": 2012,
    "source_url": "https://datacenters.google/locations/mayes-county-oklahoma/",
    "notes": "Mayes 2 is 200 MW. $5.7B invested in OK. $9B two-year investment announced with 2 new Muskogee County campuses and 600 MW of new clean energy PPAs."
  },
  {
    "name": "Google Muskogee County Oklahoma (New)",
    "operator": "Google",
    "lat": 35.7479,
    "lon": -95.3697,
    "power_mw": 500,
    "status": "construction",
    "gpu_count": null,
    "gpu_type": null,
    "year": 2027,
    "source_url": "https://www.newson6.com/technology/google-data-centers-muskogee-county-oklahoma",
    "notes": "Two new data center campuses in Muskogee County as part of $9B Oklahoma investment. 600 MW of new clean energy PPAs."
  },
  {
    "name": "Google Midlothian Texas Campus",
    "operator": "Google",
    "lat": 32.4824,
    "lon": -96.9945,
    "power_mw": 300,
    "status": "construction",
    "gpu_count": null,
    "gpu_type": null,
    "year": 2027,
    "source_url": "https://communityimpact.com/dallas-fort-worth/mckinney/business/2025/11/14/google-commits-40b-to-3-new-data-centers-infrastructure-in-texas-through-2027/",
    "notes": "Part of $40B Texas commitment through 2027 for 3 new data centers. Original DFW-area campus built 2019. Expanding AI/cloud capacity."
  },
  {
    "name": "Google Pine Island Minnesota",
    "operator": "Google",
    "lat": 44.2013,
    "lon": -92.6485,
    "power_mw": 400,
    "status": "planned",
    "gpu_count": null,
    "gpu_type": null,
    "year": 2028,
    "source_url": "https://www.cnbc.com/2026/02/24/google-to-build-data-center-in-minnesota-with-solar-wind-and-battery-storage.html",
    "notes": "Google's first MN data center. Will deploy 1,400 MW wind, 200 MW solar, 300 MW battery storage via Xcel. Renewables online 2028-2029."
  },
  {
    "name": "Google Kansas City (Project Mica)",
    "operator": "Google",
    "lat": 39.0997,
    "lon": -94.5786,
    "power_mw": 300,
    "status": "planned",
    "gpu_count": null,
    "gpu_type": null,
    "year": 2027,
    "source_url": "https://en.wikipedia.org/wiki/Google_data_centers",
    "notes": "In-development Google facility. 500-acre site off NE corner of I-435. Part of broader PJM Interconnection AI infrastructure investment."
  },
  {
    "name": "CoreWeave Weehawken NJ (LGA1)",
    "operator": "CoreWeave",
    "lat": 40.769,
    "lon": -74.02,
    "power_mw": 50,
    "status": "operational",
    "gpu_count": null,
    "gpu_type": "NVIDIA H100/H200",
    "year": 2024,
    "source_url": "https://dgtlinfra.com/coreweave-data-center-locations/",
    "notes": "CoreWeave's US East facility near NYC. Part of 32 data centers with 250K total GPUs across the fleet."
  },
  {
    "name": "CoreWeave Kenilworth NJ",
    "operator": "CoreWeave",
    "lat": 40.674,
    "lon": -74.2907,
    "power_mw": 200,
    "status": "construction",
    "gpu_count": null,
    "gpu_type": null,
    "year": 2027,
    "source_url": "https://re-nj.com/coreweave-begins-1-8-billion-data-center-project-in-kenilworth-landing-first-award-under-new-eda-tax-credit-program/",
    "notes": "$1.8B purpose-built data center. First award under NJ EDA tax credit program. Construction started mid-Sep 2025, operational early 2027."
  },
  {
    "name": "CoreWeave Lancaster PA",
    "operator": "CoreWeave",
    "lat": 40.0379,
    "lon": -76.3055,
    "power_mw": 500,
    "status": "planned",
    "gpu_count": null,
    "gpu_type": null,
    "year": 2028,
    "source_url": "https://www.datacenterdynamics.com/en/news/coreweave-plans-6bn-data-center-in-lancaster-pennsylvania/",
    "notes": "$6B purpose-built facility. 15-year, $11B capacity commitment. One of CoreWeave's largest planned campuses."
  },
  {
    "name": "CoreWeave Las Vegas (LAS1)",
    "operator": "CoreWeave",
    "lat": 36.1699,
    "lon": -115.1398,
    "power_mw": 50,
    "status": "operational",
    "gpu_count": null,
    "gpu_type": "NVIDIA H100",
    "year": 2024,
    "source_url": "https://www.coreweave.com/blog/coreweave-opens-new-data-center-in-las-vegas-opening-specialized-cloud-capabilities-for-west-coast-firms",
    "notes": "CoreWeave's West Coast GPU cloud facility serving West Coast AI/ML workloads."
  },
  {
    "name": "CoreWeave Chester VA",
    "operator": "CoreWeave",
    "lat": 37.3563,
    "lon": -77.4114,
    "power_mw": 75,
    "status": "operational",
    "gpu_count": null,
    "gpu_type": "NVIDIA H100/H200",
    "year": 2024,
    "source_url": "https://dgtlinfra.com/coreweave-data-center-locations/",
    "notes": "CoreWeave Virginia facility. Part of broader US footprint supporting AI/ML inference and training workloads."
  },
  {
    "name": "CoreWeave/Core Scientific Muskogee OK",
    "operator": "CoreWeave / Core Scientific",
    "lat": 35.7479,
    "lon": -95.3697,
    "power_mw": 200,
    "status": "construction",
    "gpu_count": null,
    "gpu_type": null,
    "year": 2026,
    "source_url": "https://dgtlinfra.com/coreweave-data-center-locations/",
    "notes": "CoreWeave and Core Scientific data center at Port of Muskogee. Part of CoreWeave's acquisition of Core Scientific (1.3 GW portfolio)."
  },
  {
    "name": "Applied Digital Ellendale ND (Polaris Forge 1)",
    "operator": "Applied Digital / CoreWeave",
    "lat": 46.0028,
    "lon": -98.5267,
    "power_mw": 100,
    "status": "operational",
    "gpu_count": null,
    "gpu_type": null,
    "year": 2025,
    "source_url": "https://ir.applieddigital.com/news-events/press-releases/detail/137/applied-digital-completes-phase-ii-ready-for-service-at",
    "notes": "First 100 MW building fully energized Q4 2025. Part of 400 MW Ellendale campus. Leased to CoreWeave for AI/HPC."
  },
  {
    "name": "Applied Digital Ellendale ND (Building 2)",
    "operator": "Applied Digital / CoreWeave",
    "lat": 46.004,
    "lon": -98.528,
    "power_mw": 150,
    "status": "construction",
    "gpu_count": null,
    "gpu_type": null,
    "year": 2026,
    "source_url": "https://ir.applieddigital.com/news-events/press-releases/detail/123/applied-digital-announces-250mw-ai-data-center-lease-with",
    "notes": "Second 150 MW building under construction. Expected ready for service mid-2026. Third 150 MW building in planning (2027)."
  },
  {
    "name": "Applied Digital Jamestown ND (JMS01)",
    "operator": "Applied Digital",
    "lat": 46.9108,
    "lon": -98.7086,
    "power_mw": 100,
    "status": "operational",
    "gpu_count": null,
    "gpu_type": null,
    "year": 2023,
    "source_url": "https://www.jamestownsun.com/news/local/applied-digital-brings-first-50-mw-online-at-ellendale-ai-factory",
    "notes": "100 MW AI/HPC facility in Jamestown, ND. Applied Digital has PSC approval for up to 530 MW across ND operations."
  },
  {
    "name": "Crusoe Abilene TX (Lancium Clean Campus)",
    "operator": "Crusoe Energy",
    "lat": 32.45,
    "lon": -99.74,
    "power_mw": 1200,
    "status": "construction",
    "gpu_count": null,
    "gpu_type": null,
    "year": 2026,
    "source_url": "https://www.crusoe.ai/resources/newsroom/crusoe-expands-ai-data-center-campus-in-abilene-to-1-2-gigawatts",
    "notes": "Same physical campus as Stargate Abilene flagship. Crusoe is the builder/operator. 8 buildings, 4M sq ft, 1.2 GW. First 2 buildings energized H1 2025."
  },
  {
    "name": "Crusoe Project Jade (Cheyenne, WY)",
    "operator": "Crusoe Energy / Tallgrass",
    "lat": 41.08,
    "lon": -104.82,
    "power_mw": 1800,
    "status": "planned",
    "gpu_count": null,
    "gpu_type": null,
    "year": 2027,
    "source_url": "https://www.datacenterdynamics.com/en/news/crusoe-gets-go-ahead-for-18gw-data-center-campus-and-power-plant-in-cheyenne-wyoming/",
    "notes": "1.8 GW initial campus near Terry Ranch Rd, Laramie County. Scalable to 10 GW. Tallgrass investing $7B in adjacent gas power + CO2 sequestration. Total project cost up to $50B. First buildings by 2027."
  },
  {
    "name": "Crusoe Sparks NV (Redwood Materials)",
    "operator": "Crusoe Energy",
    "lat": 39.5349,
    "lon": -119.7527,
    "power_mw": 20,
    "status": "operational",
    "gpu_count": null,
    "gpu_type": null,
    "year": 2025,
    "source_url": "https://www.hpcwire.com/off-the-wire/crusoe-and-redwood-materials-expand-ai-data-center-deployment-to-24-modular-units-in-nevada/",
    "notes": "24 Crusoe Spark modular data centers powered by Redwood Energy 20 MW microgrid. Proof-of-concept for modular AI factory model."
  },
  {
    "name": "Lambda Vernon CA (Prime LAX01)",
    "operator": "Lambda",
    "lat": 33.9981,
    "lon": -118.2298,
    "power_mw": 50,
    "status": "operational",
    "gpu_count": null,
    "gpu_type": "NVIDIA H100/GB200",
    "year": 2025,
    "source_url": "https://www.prnewswire.com/news-releases/prime-data-centers-and-lambda-partner-to-power-the-next-era-of-superintelligence-with-ai-optimized-infrastructure-in-southern-california-302613971.html",
    "notes": "GPU cluster at Prime's LAX01 datacenter. Lambda aims for 1M+ NVIDIA GPUs and 3 GW of liquid-cooled capacity. Raised $1.5B in late 2025."
  },
  {
    "name": "Lambda Allen TX (Cologix)",
    "operator": "Lambda",
    "lat": 33.1032,
    "lon": -96.6706,
    "power_mw": 30,
    "status": "operational",
    "gpu_count": null,
    "gpu_type": "NVIDIA H100",
    "year": 2024,
    "source_url": "https://lambda.ai/hyperscale",
    "notes": "Lambda GPU cloud facility in Allen, TX (DFW area). Part of Lambda's 15+ US data center network."
  },
  {
    "name": "Lambda Columbus OH (Cologix)",
    "operator": "Lambda",
    "lat": 39.9612,
    "lon": -82.9988,
    "power_mw": 30,
    "status": "operational",
    "gpu_count": null,
    "gpu_type": "NVIDIA H100",
    "year": 2024,
    "source_url": "https://lambda.ai/hyperscale",
    "notes": "Lambda GPU cloud facility in Columbus, OH. Part of distributed US footprint."
  },
  {
    "name": "Oracle Abilene TX (Stargate Cloud Infra)",
    "operator": "Oracle",
    "lat": 32.449,
    "lon": -99.734,
    "power_mw": 400,
    "status": "operational",
    "gpu_count": 64000,
    "gpu_type": "NVIDIA GB200",
    "year": 2025,
    "source_url": "https://www.sdxcentral.com/news/openai-and-oracle-to-deploy-64000-gb200-gpus-at-stargate-abilene-data-center-by-2026-report/",
    "notes": "Oracle Cloud Infrastructure at Stargate Abilene. First 64K GB200 GPUs deployed, scaling to 450K. Oracle purchased ~400K GB200s ($40B) for 15-year OpenAI lease."
  },
  {
    "name": "Oracle Michigan Data Center",
    "operator": "Oracle",
    "lat": 42.7325,
    "lon": -84.5555,
    "power_mw": 200,
    "status": "construction",
    "gpu_count": null,
    "gpu_type": null,
    "year": 2026,
    "source_url": "https://www.oracle.com/news/announcement/blog/oracle-is-set-to-power-on-new-data-center-in-michigan-2025-1018/",
    "notes": "New OCI data center in Michigan. Part of Oracle's surge in capex to $35B in 2026 for AI/cloud infrastructure."
  },
  {
    "name": "Microsoft Salem Township PA",
    "operator": "Microsoft",
    "lat": 41.0534,
    "lon": -76.4106,
    "power_mw": 500,
    "status": "planned",
    "gpu_count": null,
    "gpu_type": null,
    "year": 2028,
    "source_url": "https://azure.microsoft.com/en-us/blog/microsofts-commitment-to-supporting-cloud-infrastructure-demand-in-the-united-states/",
    "notes": "Part of $20B Pennsylvania AI/cloud investment. Adjacent to Susquehanna nuclear power plant with direct power connection."
  },
  {
    "name": "Microsoft Falls Township PA",
    "operator": "Microsoft",
    "lat": 40.1756,
    "lon": -74.7848,
    "power_mw": 400,
    "status": "planned",
    "gpu_count": null,
    "gpu_type": null,
    "year": 2028,
    "source_url": "https://azure.microsoft.com/en-us/blog/microsofts-commitment-to-supporting-cloud-infrastructure-demand-in-the-united-states/",
    "notes": "Second key PA site for Microsoft's $20B investment. Part of PJM Interconnection region buildout."
  },
  {
    "name": "Apple Houston AI Server Factory",
    "operator": "Apple",
    "lat": 29.7604,
    "lon": -95.3698,
    "power_mw": 50,
    "status": "operational",
    "gpu_count": null,
    "gpu_type": "Apple Silicon (custom)",
    "year": 2025,
    "source_url": "https://www.cnbc.com/2025/02/24/apple-to-open-texas-ai-server-factory-in-500-billion-us-expansion.html",
    "notes": "250K sq ft AI server manufacturing facility. Produces custom servers for Private Cloud Compute (Apple Intelligence). First test unit Jul 2025, shipping Oct 2025. Part of $500B+ US commitment."
  },
  {
    "name": "STACK Infrastructure Ashburn VA (144 MW)",
    "operator": "STACK Infrastructure",
    "lat": 39.0438,
    "lon": -77.4874,
    "power_mw": 144,
    "status": "construction",
    "gpu_count": null,
    "gpu_type": null,
    "year": 2026,
    "source_url": "https://www.blackridgeresearch.com/blog/list-of-largest-upcoming-data-centers-in-virginia-united-states-us",
    "notes": "Two 72 MW data center buildings in Greater Ashburn, Loudoun County. Hyperscale facility in Data Center Alley."
  },
  {
    "name": "STACK Infrastructure Leesburg VA (NVA-06)",
    "operator": "STACK Infrastructure",
    "lat": 39.1157,
    "lon": -77.5636,
    "power_mw": 72,
    "status": "construction",
    "gpu_count": null,
    "gpu_type": null,
    "year": 2026,
    "source_url": "https://www.blackridgeresearch.com/blog/list-of-largest-upcoming-data-centers-in-virginia-united-states-us",
    "notes": "52-acre campus with two buildings (48 MW + 24 MW) in two phases. Loudoun County, VA."
  },
  {
    "name": "Vantage Northern Virginia Expansion",
    "operator": "Vantage Data Centers",
    "lat": 39.0438,
    "lon": -77.46,
    "power_mw": 192,
    "status": "construction",
    "gpu_count": null,
    "gpu_type": null,
    "year": 2026,
    "source_url": "https://www.blackridgeresearch.com/blog/list-of-largest-upcoming-data-centers-in-virginia-united-states-us",
    "notes": "$2B expansion with 3 data centers totaling 192 MW and 929K sq ft in Northern Virginia."
  },
  {
    "name": "Vantage Texas Campus (1.4 GW)",
    "operator": "Vantage Data Centers",
    "lat": 32.7767,
    "lon": -96.797,
    "power_mw": 1400,
    "status": "planned",
    "gpu_count": null,
    "gpu_type": null,
    "year": 2028,
    "source_url": "https://www.blackridgeresearch.com/blog/top-data-center-companies-in-usa-united-states",
    "notes": "1,200-acre site hosting 10 data centers at 250 kW+ per rack. $25B+ investment. One of the largest planned single-campus facilities in the US."
  },
  {
    "name": "QTS Cedar Rapids Iowa Campus",
    "operator": "QTS Data Centers",
    "lat": 41.9779,
    "lon": -91.6656,
    "power_mw": 500,
    "status": "planned",
    "gpu_count": null,
    "gpu_type": null,
    "year": 2027,
    "source_url": "https://www.datacenterknowledge.com/data-center-construction/new-data-center-developments-september-2025",
    "notes": "$10B data center campus announced Sep 2025. Major hyperscale facility in Iowa."
  },
  {
    "name": "Switch Las Vegas Core Campus",
    "operator": "Switch",
    "lat": 36.0828,
    "lon": -115.1523,
    "power_mw": 495,
    "status": "operational",
    "gpu_count": null,
    "gpu_type": null,
    "year": 2017,
    "source_url": "https://baxtel.com/data-center/switch-las-vegas-core-campus",
    "notes": "Currently 275 MW, scaling to 495 MW at full build-out. AI factories under construction using EVO design with hybrid air/liquid cooling at 2 MW+ per cabinet."
  },
  {
    "name": "Switch Tahoe Reno Citadel Campus",
    "operator": "Switch",
    "lat": 39.6547,
    "lon": -119.351,
    "power_mw": 650,
    "status": "operational",
    "gpu_count": null,
    "gpu_type": null,
    "year": 2019,
    "source_url": "https://baxtel.com/data-centers/switch",
    "notes": "7.2M+ sq ft campus with 650 MW capacity. AI factory construction underway across all Switch campuses."
  },
  {
    "name": "Digital Realty Ashburn VA Campus",
    "operator": "Digital Realty",
    "lat": 39.0438,
    "lon": -77.49,
    "power_mw": 250,
    "status": "operational",
    "gpu_count": null,
    "gpu_type": null,
    "year": 2020,
    "source_url": "https://www.blackstone.com/news/press/digital-realty-and-blackstone-announce-7-billion-hyperscale-data-center-development-joint-venture/",
    "notes": "Part of Digital Realty's 2.8 GW portfolio. Joint venture with Blackstone for $7B in hyperscale campuses. NVIDIA AI Factory Research Center partner."
  },
  {
    "name": "Core Scientific Denton TX (CoreWeave)",
    "operator": "Core Scientific / CoreWeave",
    "lat": 33.2148,
    "lon": -97.1331,
    "power_mw": 260,
    "status": "operational",
    "gpu_count": null,
    "gpu_type": "NVIDIA H100/H200",
    "year": 2025,
    "source_url": "https://investors.corescientific.com/news-events/press-releases/detail/74/core-scientific-to-provide-approximately-200-mw-of-infrastructure-to-host-coreweaves-high-performance-computing-services-capturing-significant-ai-compute-opportunity",
    "notes": "Former bitcoin mining campus converted to AI datacenter. 70 MW expansion to 260 MW total. $1.2B contracted revenue. 12-year CoreWeave lease. Part of 590 MW total CoreWeave commitment across 6 sites."
  },
  {
    "name": "Core Scientific Calvert City KY (CoreWeave)",
    "operator": "Core Scientific / CoreWeave",
    "lat": 37.0334,
    "lon": -88.3501,
    "power_mw": 100,
    "status": "operational",
    "gpu_count": null,
    "gpu_type": "NVIDIA H100",
    "year": 2025,
    "source_url": "https://www.sec.gov/Archives/edgar/data/1839341/000162828025008312/ex991-coreweavepressrelease.htm",
    "notes": "Part of Core Scientific's 6-site, 590 MW CoreWeave hosting portfolio. Converted from crypto mining to AI compute."
  },
  {
    "name": "Core Scientific Dallas TX (New Campus)",
    "operator": "Core Scientific / CoreWeave",
    "lat": 32.7767,
    "lon": -96.797,
    "power_mw": 285,
    "status": "planned",
    "gpu_count": null,
    "gpu_type": null,
    "year": 2027,
    "source_url": "https://www.datacenterdynamics.com/en/news/core-scientific-buys-land-outside-dallas-texas-for-285mw-data-center-campus/",
    "notes": "Land acquired outside Dallas for 285 MW campus. Part of CoreWeave acquisition of Core Scientific (1.3 GW portfolio + 1 GW expansion potential)."
  },
  {
    "name": "Equinix Ashburn VA Campus",
    "operator": "Equinix",
    "lat": 39.0438,
    "lon": -77.485,
    "power_mw": 200,
    "status": "operational",
    "gpu_count": null,
    "gpu_type": null,
    "year": 2018,
    "source_url": "https://newsroom.equinix.com/press-releases-global",
    "notes": "Part of Equinix's 270 global datacenters. 100+ MW of Bloom Energy fuel cells deployed across US sites. 59 construction projects underway in 2025."
  },
  {
    "name": "Google Chesterfield VA Data Center",
    "operator": "Google",
    "lat": 37.3774,
    "lon": -77.5061,
    "power_mw": 200,
    "status": "construction",
    "gpu_count": null,
    "gpu_type": null,
    "year": 2026,
    "source_url": "https://en.wikipedia.org/wiki/Google_data_centers",
    "notes": "New Google datacenter joining Loudoun/Prince William County facilities as part of Google's Virginia cluster."
  },
  {
    "name": "Meta Gallatin TN Data Center",
    "operator": "Meta",
    "lat": 36.3884,
    "lon": -86.4464,
    "power_mw": 200,
    "status": "operational",
    "gpu_count": null,
    "gpu_type": null,
    "year": 2023,
    "source_url": "https://datacenters.atmeta.com/us-locations/",
    "notes": "Operational Meta datacenter supporting AI training workloads. Part of Meta's fleet of 25+ US datacenters."
  },
  {
    "name": "Meta DeKalb IL Data Center",
    "operator": "Meta",
    "lat": 41.9294,
    "lon": -88.7503,
    "power_mw": 200,
    "status": "operational",
    "gpu_count": null,
    "gpu_type": null,
    "year": 2022,
    "source_url": "https://datacenters.atmeta.com/us-locations/",
    "notes": "Operational Meta datacenter in northern Illinois. Part of broader Meta AI training infrastructure."
  },
  {
    "name": "Microsoft Fairwater Atlanta",
    "operator": "Microsoft",
    "lat": 33.45,
    "lon": -84.58,
    "power_mw": 615,
    "status": "operational",
    "gpu_count": null,
    "gpu_type": "NVIDIA GB200/GB300",
    "year": 2025,
    "source_url": "https://www.datacenterdynamics.com/en/news/microsoft-launches-atlanta-fairwater-data-center-two-stories-no-ups-or-gen-sets/",
    "notes": "World's first 'AI superfactory' \u2014 two-story design, no UPS or gen-sets. Southern Company grid."
  },
  {
    "name": "Microsoft Abilene TX Expansion",
    "operator": "Microsoft / Crusoe Energy",
    "lat": 32.46,
    "lon": -99.72,
    "power_mw": 900,
    "status": "announced",
    "gpu_count": null,
    "gpu_type": null,
    "year": 2027,
    "source_url": "https://fortune.com/2026/03/27/microsoft-texas-data-center-open-ai-former-partner-cloud-provider/",
    "notes": "Two new AI factory buildings plus 900 MW on-site gas power plant. Adjacent to Stargate campus."
  },
  {
    "name": "Meta Temple TX",
    "operator": "Meta",
    "lat": 31.11,
    "lon": -97.38,
    "power_mw": 200,
    "status": "construction",
    "gpu_count": null,
    "gpu_type": null,
    "year": 2026,
    "source_url": null,
    "notes": "900K sq ft hyperscale campus on 384 acres. Originally paused in 2022, construction resumed."
  },
  {
    "name": "AWS Richmond County, NC",
    "operator": "Amazon / AWS",
    "lat": 35.0,
    "lon": -79.78,
    "power_mw": 770,
    "status": "construction",
    "gpu_count": null,
    "gpu_type": null,
    "year": 2028,
    "source_url": "https://www.datacenterdynamics.com/en/news/amazon-breaks-ground-on-10bn-data-center-complex-in-richmond-county-north-carolina/",
    "notes": "$10B investment, 1,200 acres, 20 buildings. Near Duke Energy's 2.24 GW Smith Jr. power plant."
  },
  {
    "name": "Google Armstrong County TX",
    "operator": "Google",
    "lat": 34.96,
    "lon": -101.35,
    "power_mw": 900,
    "status": "announced",
    "gpu_count": null,
    "gpu_type": null,
    "year": 2027,
    "source_url": null,
    "notes": "Part of Google's $40B Texas commitment. Air-cooled facility in the Panhandle."
  },
  {
    "name": "Google Haskell County TX",
    "operator": "Google",
    "lat": 33.16,
    "lon": -99.73,
    "power_mw": 1500,
    "status": "announced",
    "gpu_count": null,
    "gpu_type": null,
    "year": 2027,
    "source_url": null,
    "notes": "Two data center campuses. One co-located with Intersect 840 MW solar + 1.3 GWh storage."
  },
  {
    "name": "EdgeCore Mesa AZ Campus",
    "operator": "EdgeCore",
    "lat": 33.41,
    "lon": -111.83,
    "power_mw": 450,
    "status": "construction",
    "gpu_count": null,
    "gpu_type": null,
    "year": 2026,
    "source_url": null,
    "notes": "84 acres. 206 MW commissioned since Apr 2023, expanding to 450 MW. Powered by Salt River Project."
  },
  {
    "name": "Compass Meridian MS Campus",
    "operator": "Compass Datacenters",
    "lat": 32.37,
    "lon": -88.68,
    "power_mw": 320,
    "status": "announced",
    "gpu_count": null,
    "gpu_type": null,
    "year": 2027,
    "source_url": null,
    "notes": "$10B investment, 8 data center buildings at 40 MW each. One of largest in the Southeast."
  },
  {
    "name": "Compass Red Oak TX Campus",
    "operator": "Compass Datacenters",
    "lat": 32.38,
    "lon": -96.78,
    "power_mw": 360,
    "status": "construction",
    "gpu_count": null,
    "gpu_type": null,
    "year": 2027,
    "source_url": null,
    "notes": "300 acres, 10 buildings at full build. DFW metro area."
  },
  {
    "name": "CyrusOne Whitney TX (DFW10)",
    "operator": "CyrusOne",
    "lat": 31.95,
    "lon": -97.32,
    "power_mw": 190,
    "status": "construction",
    "gpu_count": null,
    "gpu_type": null,
    "year": 2026,
    "source_url": null,
    "notes": "Adjacent to Calpine's 800 MW Bosque Power Plant. 190 MW Calpine power agreement."
  },
  {
    "name": "CyrusOne Fort Worth TX (DFW7)",
    "operator": "CyrusOne",
    "lat": 32.76,
    "lon": -97.33,
    "power_mw": 200,
    "status": "construction",
    "gpu_count": null,
    "gpu_type": null,
    "year": 2026,
    "source_url": null,
    "notes": "Partnership with Eolian for 100 MW BESS co-located."
  },
  {
    "name": "QTS Phoenix AZ (PHX2)",
    "operator": "QTS / Blackstone",
    "lat": 33.45,
    "lon": -112.07,
    "power_mw": 210,
    "status": "construction",
    "gpu_count": null,
    "gpu_type": null,
    "year": 2026,
    "source_url": null,
    "notes": "Multi-building hyperscale campus. Part of Blackstone's massive QTS expansion."
  },
  {
    "name": "QTS Manassas VA Campus",
    "operator": "QTS / Blackstone",
    "lat": 38.75,
    "lon": -77.47,
    "power_mw": 190,
    "status": "construction",
    "gpu_count": null,
    "gpu_type": null,
    "year": 2026,
    "source_url": null,
    "notes": "Six-building, 105-acre campus in Northern Virginia."
  },
  {
    "name": "Prime Data Centers Avondale AZ",
    "operator": "Prime Data Centers",
    "lat": 33.43,
    "lon": -112.35,
    "power_mw": 210,
    "status": "construction",
    "gpu_count": null,
    "gpu_type": null,
    "year": 2026,
    "source_url": null,
    "notes": "66 acres, 5 data centers, 1.3M sq ft. Lambda partnership for AI GPU infrastructure."
  },
  {
    "name": "Google Red Oak TX (Ellis County)",
    "operator": "Google",
    "lat": 32.52,
    "lon": -96.75,
    "power_mw": 300,
    "status": "operational",
    "gpu_count": null,
    "gpu_type": null,
    "year": 2025,
    "source_url": null,
    "notes": "Part of Google's $40B Texas commitment. First building operational Nov 2025."
  },
  {
    "name": "Aligned Data Centers DFW",
    "operator": "Aligned / BlackRock / NVIDIA",
    "lat": 33.02,
    "lon": -96.7,
    "power_mw": 300,
    "status": "operational",
    "gpu_count": null,
    "gpu_type": null,
    "year": 2025,
    "source_url": null,
    "notes": "Being acquired for $40B by BlackRock, NVIDIA, Microsoft, xAI consortium. Key DFW campus."
  },
  {
    "name": "Riot Platforms Rockdale (Whinstone)",
    "operator": "Riot Platforms",
    "lat": 30.6554,
    "lon": -97.0014,
    "power_mw": 750,
    "status": "operational",
    "gpu_count": null,
    "gpu_type": "ASIC Bitcoin Miners",
    "year": 2021,
    "source_url": "https://www.riotplatforms.com/",
    "notes": "Largest Bitcoin mining facility in North America. 750 MW capacity. Participates in ERCOT demand response \u2014 curtails during peak grid stress. Potential AI repurposing candidate."
  },
  {
    "name": "Riot Platforms Corsicana TX",
    "operator": "Riot Platforms",
    "lat": 32.0955,
    "lon": -96.4689,
    "power_mw": 600,
    "status": "construction",
    "gpu_count": null,
    "gpu_type": "ASIC Bitcoin Miners",
    "year": 2025,
    "source_url": null,
    "notes": "1 GW planned at full build. 600 MW Phase 1 operational. Immersion-cooled mining. Near Navarro County substation."
  },
  {
    "name": "Marathon Digital Granbury TX",
    "operator": "Marathon Digital",
    "lat": 32.4429,
    "lon": -97.76,
    "power_mw": 280,
    "status": "operational",
    "gpu_count": null,
    "gpu_type": "ASIC Bitcoin Miners",
    "year": 2022,
    "source_url": null,
    "notes": "Large-scale Bitcoin mining. Marathon is exploring AI/HPC hosting to diversify revenue."
  },
  {
    "name": "CleanSpark Sandersville GA",
    "operator": "CleanSpark",
    "lat": 32.9818,
    "lon": -82.8071,
    "power_mw": 400,
    "status": "operational",
    "gpu_count": null,
    "gpu_type": "ASIC Bitcoin Miners",
    "year": 2024,
    "source_url": null,
    "notes": "Largest CleanSpark facility. 400 MW across multiple buildings. Georgia Power grid."
  },
  {
    "name": "Bitdeer Rockdale TX",
    "operator": "Bitdeer Technologies",
    "lat": 30.66,
    "lon": -97.01,
    "power_mw": 265,
    "status": "operational",
    "gpu_count": null,
    "gpu_type": "ASIC Bitcoin Miners",
    "year": 2021,
    "source_url": null,
    "notes": "Adjacent to Riot Rockdale campus. Mining + cloud hash rate services. Building custom ASIC chips."
  },
  {
    "name": "MARA (Marathon) Garden City TX",
    "operator": "Marathon Digital",
    "lat": 31.866,
    "lon": -101.488,
    "power_mw": 200,
    "status": "operational",
    "gpu_count": null,
    "gpu_type": "ASIC Bitcoin Miners",
    "year": 2023,
    "source_url": null,
    "notes": "West Texas mining site. Cheap wind/solar power. Marathon pursuing AI/HPC diversification."
  },
  {
    "name": "Cipher Mining Odessa TX",
    "operator": "Cipher Mining",
    "lat": 31.8457,
    "lon": -102.3477,
    "power_mw": 200,
    "status": "operational",
    "gpu_count": null,
    "gpu_type": "ASIC Bitcoin Miners",
    "year": 2023,
    "source_url": null,
    "notes": "West Texas mining facility. Near Permian Basin wind resources. Cipher exploring AI hosting."
  },
  {
    "name": "Cipher Mining Black Pearl TX",
    "operator": "Cipher Mining",
    "lat": 31.33,
    "lon": -100.45,
    "power_mw": 150,
    "status": "operational",
    "gpu_count": null,
    "gpu_type": "ASIC Bitcoin Miners",
    "year": 2023,
    "source_url": null,
    "notes": "Tom Green County. Bitcoin mining with demand response participation."
  },
  {
    "name": "Iris Energy Childress TX",
    "operator": "Iris Energy",
    "lat": 34.4263,
    "lon": -100.204,
    "power_mw": 600,
    "status": "construction",
    "gpu_count": null,
    "gpu_type": "NVIDIA GPUs + ASIC Miners",
    "year": 2025,
    "source_url": null,
    "notes": "Hybrid crypto/AI facility. 600 MW planned. Iris Energy pivoting to AI/HPC \u2014 already hosting NVIDIA GPUs alongside miners."
  },
  {
    "name": "Hut 8 Salt Creek TX",
    "operator": "Hut 8",
    "lat": 32.75,
    "lon": -100.92,
    "power_mw": 205,
    "status": "operational",
    "gpu_count": null,
    "gpu_type": "ASIC Bitcoin Miners",
    "year": 2024,
    "source_url": null,
    "notes": "Former US Bitcoin Corp site. Hut 8 actively converting capacity to AI/HPC hosting."
  }
]