[
{
"id":"EIA-54808-GR1",
"name":"New York University Central Plant",
"iso":"NYISO",
"type":"generation",
"fuel_type":"gas",
"capacity_mw":2.6,
"lat":40.7899,
"lon":-73.9233,
"status":"(V) Under construction, more than 50 percent complete",
"queue_date":"",
"estimated_cod":"2026-02-01",
"state":"NY"
},
{
"id":"EIA-63798-ATL01",
"name":"Atlas",
"iso":"AZPS",
"type":"generation",
"fuel_type":"solar",
"capacity_mw":300.0,
"lat":33.9434,
"lon":-113.7917,
"status":"(V) Under construction, more than 50 percent complete",
"queue_date":"",
"estimated_cod":"2026-02-01",
"state":"AZ"
},
{
"id":"EIA-63798-ATLB1",
"name":"Atlas",
"iso":"AZPS",
"type":"generation",
"fuel_type":"battery",
"capacity_mw":300.0,
"lat":33.9434,
"lon":-113.7917,
"status":"(V) Under construction, more than 50 percent complete",
"queue_date":"",
"estimated_cod":"2026-02-01",
"state":"AZ"
},
{
"id":"EIA-69453-ALBA1",
"name":"Alamo Clean Energy Center (BESS)",
"iso":"ERCOT",
"type":"generation",
"fuel_type":"battery",
"capacity_mw":10.1,
"lat":30.9024,
"lon":-102.8728,
"status":"(TS) Construction complete, but not yet in commercial operation",
"queue_date":"",
"estimated_cod":"2026-02-01",
"state":"TX"
},
{
"id":"EIA-69455-FSBA1",
"name":"Fort Stockton Clean Energy Center (BESS)",
"iso":"ERCOT",
"type":"generation",
"fuel_type":"battery",
"capacity_mw":10.1,
"lat":30.8915,
"lon":-102.8828,
"status":"(TS) Construction complete, but not yet in commercial operation",
"queue_date":"",
"estimated_cod":"2026-02-01",
"state":"TX"
},
{
"id":"EIA-69458-NPBA1",
"name":"North Pecos Clean Energy Center (BESS)",
"iso":"ERCOT",
"type":"generation",
"fuel_type":"battery",
"capacity_mw":10.1,
"lat":31.4225,
"lon":-103.5091,
"status":"(TS) Construction complete, but not yet in commercial operation",
"queue_date":"",
"estimated_cod":"2026-02-01",
"state":"TX"
},
{
"id":"EIA-1313-11",
"name":"Osage City",
"iso":"SPP",
"type":"generation",
"fuel_type":"oil",
"capacity_mw":2.0,
"lat":38.6332,
"lon":-95.8277,
"status":"(V) Under construction, more than 50 percent complete",
"queue_date":"",
"estimated_cod":"2026-03-01",
"state":"KS"
},
{
"id":"EIA-1313-12",
"name":"Osage City",
"iso":"SPP",
"type":"generation",
"fuel_type":"oil",
"capacity_mw":2.0,
"lat":38.6332,
"lon":-95.8277,
"status":"(V) Under construction, more than 50 percent complete",
"queue_date":"",
"estimated_cod":"2026-03-01",
"state":"KS"
},
{
"id":"EIA-50328-NOR-1",
"name":"Byllesby",
"iso":"MISO",
"type":"generation",
"fuel_type":"hydro",
"capacity_mw":2.0,
"lat":44.5119,
"lon":-92.9394,
"status":"(TS) Construction complete, but not yet in commercial operation",
"queue_date":"",
"estimated_cod":"2026-03-01",
"state":"MN"
},
{
"id":"EIA-50328-SOU-2",
"name":"Byllesby",
"iso":"MISO",
"type":"generation",
"fuel_type":"hydro",
"capacity_mw":2.0,
"lat":44.5119,
"lon":-92.9394,
"status":"(TS) Construction complete, but not yet in commercial operation",
"queue_date":"",
"estimated_cod":"2026-03-01",
"state":"MN"
},
{
"id":"EIA-58413-CXS01",
"name":"Copper Crossing Energy and Research Cent",
"iso":"SRP",
"type":"generation",
"fuel_type":"solar",
"capacity_mw":17.6,
"lat":33.1551,
"lon":-111.4836,
"status":"(U) Under construction, less than or equal to 50 percent complete",
"queue_date":"",
"estimated_cod":"2026-03-01",
"state":"AZ"
},
{
"id":"EIA-58413-CXS02",
"name":"Copper Crossing Energy and Research Cent",
"iso":"SRP",
"type":"generation",
"fuel_type":"solar",
"capacity_mw":17.6,
"lat":33.1551,
"lon":-111.4836,
"status":"(U) Under construction, less than or equal to 50 percent complete",
"queue_date":"",
"estimated_cod":"2026-03-01",
"state":"AZ"
},
{
"id":"EIA-58413-CXS03",
"name":"Copper Crossing Energy and Research Cent",
"iso":"SRP",
"type":"generation",
"fuel_type":"solar",
"capacity_mw":19.2,
"lat":33.1551,
"lon":-111.4836,
"status":"(U) Under construction, less than or equal to 50 percent complete",
"queue_date":"",
"estimated_cod":"2026-03-01",
"state":"AZ"
},
{
"id":"EIA-61648-2",
"name":"Robins Air Force Base Solar",
"iso":"SOCO",
"type":"generation",
"fuel_type":"battery",
"capacity_mw":128.0,
"lat":32.6812,
"lon":-83.6164,
"status":"(V) Under construction, more than 50 percent complete",
"queue_date":"",
"estimated_cod":"2026-03-01",
"state":"GA"
},
{
"id":"EIA-62377-2",
"name":"Moody Air Force Base Solar",
"iso":"SOCO",
"type":"generation",
"fuel_type":"battery",
"capacity_mw":49.5,
"lat":30.9574,
"lon":-83.2229,
"status":"(V) Under construction, more than 50 percent complete",
"queue_date":"",
"estimated_cod":"2026-03-01",
"state":"GA"
},
{
"id":"EIA-63093-VW01",
"name":"Vineyard Wind 1",
"iso":"ISO-NE",
"type":"generation",
"fuel_type":"wind",
"capacity_mw":800.0,
"lat":41.0471,
"lon":-70.4874,
"status":"(TS) Construction complete, but not yet in commercial operation",
"queue_date":"",
"estimated_cod":"2026-03-01",
"state":"MA"
},
{
"id":"EIA-63342-BKII",
"name":"McCrae Wind Energy II",
"iso":"ERCOT",
"type":"generation",
"fuel_type":"wind",
"capacity_mw":162.1,
"lat":31.754,
"lon":-101.6752,
"status":"(TS) Construction complete, but not yet in commercial operation",
"queue_date":"",
"estimated_cod":"2026-03-01",
"state":"TX"
},
{
"id":"EIA-63506-BCRV3",
"name":"Solar Carver 3 Hybrid",
"iso":"ISO-NE",
"type":"generation",
"fuel_type":"battery",
"capacity_mw":1.0,
"lat":41.8421,
"lon":-70.7699,
"status":"(V) Under construction, more than 50 percent complete",
"queue_date":"",
"estimated_cod":"2026-03-01",
"state":"MA"
},
{
"id":"EIA-63506-SCRV3",
"name":"Solar Carver 3 Hybrid",
"iso":"ISO-NE",
"type":"generation",
"fuel_type":"solar",
"capacity_mw":1.0,
"lat":41.8421,
"lon":-70.7699,
"status":"(V) Under construction, more than 50 percent complete",
"queue_date":"",
"estimated_cod":"2026-03-01",
"state":"MA"
},
{
"id":"EIA-63541-BCRV1",
"name":"Solar Carver 1 Hybrid",
"iso":"ISO-NE",
"type":"generation",
"fuel_type":"battery",
"capacity_mw":2.0,
"lat":41.8245,
"lon":-70.7529,
"status":"(V) Under construction, more than 50 percent complete",
"queue_date":"",
"estimated_cod":"2026-03-01",
"state":"MA"
},
{
"id":"EIA-63541-SCRV1",
"name":"Solar Carver 1 Hybrid",
"iso":"ISO-NE",
"type":"generation",
"fuel_type":"solar",
"capacity_mw":2.0,
"lat":41.8245,
"lon":-70.7529,
"status":"(V) Under construction, more than 50 percent complete",
"queue_date":"",
"estimated_cod":"2026-03-01",
"state":"MA"
},
{
"id":"EIA-63628-1",
"name":"Tinker",
"iso":"SPP",
"type":"generation",
"fuel_type":"gas",
"capacity_mw":48.1,
"lat":35.4147,
"lon":-97.3735,
"status":"(TS) Construction complete, but not yet in commercial operation",
"queue_date":"",
"estimated_cod":"2026-03-01",
"state":"OK"
},
{
"id":"EIA-63628-2",
"name":"Tinker",
"iso":"SPP",
"type":"generation",
"fuel_type":"gas",
"capacity_mw":48.1,
"lat":35.4147,
"lon":-97.3735,
"status":"(TS) Construction complete, but not yet in commercial operation",
"queue_date":"",
"estimated_cod":"2026-03-01",
"state":"OK"
},
{
"id":"EIA-63850-BESS1",
"name":"Cherry",
"iso":"CAISO",
"type":"generation",
"fuel_type":"battery",
"capacity_mw":40.0,
"lat":36.1225,
"lon":-119.9232,
"status":"(U) Under construction, less than or equal to 50 percent complete",
"queue_date":"",
"estimated_cod":"2026-03-01",
"state":"CA"
},
{
"id":"EIA-64132-PV1",
"name":"Oak Hill - Dry Creek",
"iso":"ERCOT",
"type":"generation",
"fuel_type":"solar",
"capacity_mw":200.0,
"lat":32.2123,
"lon":-94.7363,
"status":"(V) Under construction, more than 50 percent complete",
"queue_date":"",
"estimated_cod":"2026-03-01",
"state":"TX"
},
{
"id":"EIA-64202-BGSTB",
"name":"Big Star Solar, LLC (Hybrid)",
"iso":"ERCOT",
"type":"generation",
"fuel_type":"battery",
"capacity_mw":80.0,
"lat":29.8941,
"lon":-97.2705,
"status":"(TS) Construction complete, but not yet in commercial operation",
"queue_date":"",
"estimated_cod":"2026-03-01",
"state":"TX"
},
{
"id":"EIA-65395-HUMB1",
"name":"Hummingbird Energy Storage LLC",
"iso":"CAISO",
"type":"generation",
"fuel_type":"battery",
"capacity_mw":75.0,
"lat":37.2392,
"lon":-121.7793,
"status":"(TS) Construction complete, but not yet in commercial operation",
"queue_date":"",
"estimated_cod":"2026-03-01",
"state":"CA"
},
{
"id":"EIA-65401-BA",
"name":"Newton Solar BESS LLC",
"iso":"MISO",
"type":"generation",
"fuel_type":"battery",
"capacity_mw":2.0,
"lat":38.9361,
"lon":-88.2781,
"status":"(TS) Construction complete, but not yet in commercial operation",
"queue_date":"",
"estimated_cod":"2026-03-01",
"state":"IL"
},
{
"id":"EIA-65401-PV",
"name":"Newton Solar BESS LLC",
"iso":"MISO",
"type":"generation",
"fuel_type":"solar",
"capacity_mw":51.8,
"lat":38.9361,
"lon":-88.2781,
"status":"(TS) Construction complete, but not yet in commercial operation",
"queue_date":"",
"estimated_cod":"2026-03-01",
"state":"IL"
},
{
"id":"EIA-65513-BRNW2",
"name":"Baron Winds II",
"iso":"NYISO",
"type":"generation",
"fuel_type":"wind",
"capacity_mw":113.2,
"lat":42.4399,
"lon":-77.5298,
"status":"(V) Under construction, more than 50 percent complete",
"queue_date":"",
"estimated_cod":"2026-03-01",
"state":"NY"
},
{
"id":"EIA-66342-GAIAB",
"name":"Gaia Hybrid",
"iso":"ERCOT",
"type":"generation",
"fuel_type":"battery",
"capacity_mw":76.8,
"lat":32.1608,
"lon":-96.1953,
"status":"(V) Under construction, more than 50 percent complete",
"queue_date":"",
"estimated_cod":"2026-03-01",
"state":"TX"
},
{
"id":"EIA-66342-GAIAS",
"name":"Gaia Hybrid",
"iso":"ERCOT",
"type":"generation",
"fuel_type":"solar",
"capacity_mw":152.7,
"lat":32.1608,
"lon":-96.1953,
"status":"(V) Under construction, more than 50 percent complete",
"queue_date":"",
"estimated_cod":"2026-03-01",
"state":"TX"
},
{
"id":"EIA-66359-GHW",
"name":"Grover Hill Wind, LLC",
"iso":"PJM",
"type":"generation",
"fuel_type":"wind",
"capacity_mw":140.3,
"lat":41.0442,
"lon":-84.5098,
"status":"(TS) Construction complete, but not yet in commercial operation",
"queue_date":"",
"estimated_cod":"2026-03-01",
"state":"OH"
},
{
"id":"EIA-66390-GDYES",
"name":"MRG Goody Solar Project Hybrid",
"iso":"ERCOT",
"type":"generation",
"fuel_type":"battery",
"capacity_mw":50.4,
"lat":33.6392,
"lon":-95.6291,
"status":"(V) Under construction, more than 50 percent complete",
"queue_date":"",
"estimated_cod":"2026-03-01",
"state":"TX"
},
{
"id":"EIA-66390-GDYPV",
"name":"MRG Goody Solar Project Hybrid",
"iso":"ERCOT",
"type":"generation",
"fuel_type":"solar",
"capacity_mw":170.8,
"lat":33.6392,
"lon":-95.6291,
"status":"(V) Under construction, more than 50 percent complete",
"queue_date":"",
"estimated_cod":"2026-03-01",
"state":"TX"
},
{
"id":"EIA-66400-OCBEX",
"name":"Bexar ESS",
"iso":"ERCOT",
"type":"generation",
"fuel_type":"battery",
"capacity_mw":100.0,
"lat":29.271,
"lon":-98.456,
"status":"(TS) Construction complete, but not yet in commercial operation",
"queue_date":"",
"estimated_cod":"2026-03-01",
"state":"TX"
},
{
"id":"EIA-66410-596",
"name":"Grizzly Ridge Solar",
"iso":"ERCOT",
"type":"generation",
"fuel_type":"battery",
"capacity_mw":10.0,
"lat":31.7382,
"lon":-98.2137,
"status":"(TS) Construction complete, but not yet in commercial operation",
"queue_date":"",
"estimated_cod":"2026-03-01",
"state":"TX"
},
{
"id":"EIA-66441-INCV1",
"name":"Crossvine Solar",
"iso":"MISO",
"type":"generation",
"fuel_type":"solar",
"capacity_mw":100.0,
"lat":38.2643,
"lon":-87.0019,
"status":"(OT) Other",
"queue_date":"",
"estimated_cod":"2026-03-01",
"state":"IN"
},
{
"id":"EIA-66519-19503",
"name":"TX Pasadena 10585 Red Bluff Road Solar",
"iso":"ERCOT",
"type":"generation",
"fuel_type":"solar",
"capacity_mw":2.4,
"lat":29.615,
"lon":-95.0702,
"status":"(TS) Construction complete, but not yet in commercial operation",
"queue_date":"",
"estimated_cod":"2026-03-01",
"state":"TX"
},
{
"id":"EIA-66647-USELT",
"name":"Elkhart County Solar Project",
"iso":"PJM",
"type":"generation",
"fuel_type":"solar",
"capacity_mw":100.0,
"lat":41.498,
"lon":-85.69,
"status":"(TS) Construction complete, but not yet in commercial operation",
"queue_date":"",
"estimated_cod":"2026-03-01",
"state":"IN"
},
{
"id":"EIA-66860-USMNC",
"name":"Marion County Solar Project",
"iso":"PJM",
"type":"generation",
"fuel_type":"solar",
"capacity_mw":100.0,
"lat":40.6245,
"lon":-83.1362,
"status":"(TS) Construction complete, but not yet in commercial operation",
"queue_date":"",
"estimated_cod":"2026-03-01",
"state":"OH"
},
{
"id":"EIA-66897-MIDBA",
"name":"Midpoint Solar, LLC",
"iso":"ERCOT",
"type":"generation",
"fuel_type":"battery",
"capacity_mw":50.0,
"lat":32.116,
"lon":-97.3435,
"status":"(U) Under construction, less than or equal to 50 percent complete",
"queue_date":"",
"estimated_cod":"2026-03-01",
"state":"TX"
},
{
"id":"EIA-66897-MIDPV",
"name":"Midpoint Solar, LLC",
"iso":"ERCOT",
"type":"generation",
"fuel_type":"solar",
"capacity_mw":97.5,
"lat":32.116,
"lon":-97.3435,
"status":"(TS) Construction complete, but not yet in commercial operation",
"queue_date":"",
"estimated_cod":"2026-03-01",
"state":"TX"
},
{
"id":"EIA-66912-HS1",
"name":"Hill Solar 1",
"iso":"ERCOT",
"type":"generation",
"fuel_type":"solar",
"capacity_mw":405.0,
"lat":32.139,
"lon":-97.06,
"status":"(TS) Construction complete, but not yet in commercial operation",
"queue_date":"",
"estimated_cod":"2026-03-01",
"state":"TX"
},
{
"id":"EIA-66913-MYRST",
"name":"Myrtle Storage",
"iso":"ERCOT",
"type":"generation",
"fuel_type":"battery",
"capacity_mw":150.0,
"lat":29.2278,
"lon":-95.4281,
"status":"(TS) Construction complete, but not yet in commercial operation",
"queue_date":"",
"estimated_cod":"2026-03-01",
"state":"TX"
},
{
"id":"EIA-66914-DAN",
"name":"Danish Fields Solar, LLC",
"iso":"ERCOT",
"type":"generation",
"fuel_type":"solar",
"capacity_mw":600.0,
"lat":29.0136,
"lon":-96.2205,
"status":"(TS) Construction complete, but not yet in commercial operation",
"queue_date":"",
"estimated_cod":"2026-03-01",
"state":"TX"
},
{
"id":"EIA-66915-CTW",
"name":"Cottonwood Bayou Solar",
"iso":"ERCOT",
"type":"generation",
"fuel_type":"solar",
"capacity_mw":350.0,
"lat":29.2631,
"lon":-95.258,
"status":"(TS) Construction complete, but not yet in commercial operation",
"queue_date":"",
"estimated_cod":"2026-03-01",
"state":"TX"
},
{
"id":"EIA-66916-DANST",
"name":"Danish Fields Storage",
"iso":"ERCOT",
"type":"generation",
"fuel_type":"battery",
"capacity_mw":150.0,
"lat":29.0136,
"lon":-96.2205,
"status":"(TS) Construction complete, but not yet in commercial operation",
"queue_date":"",
"estimated_cod":"2026-03-01",
"state":"TX"
},
{
"id":"EIA-67264-1",
"name":"Jackson Pike WWTP Cogen Engines",
"iso":"PJM",
"type":"generation",
"fuel_type":"other",
"capacity_mw":1.4,
"lat":39.9112,
"lon":-83.0165,
"status":"(TS) Construction complete, but not yet in commercial operation",
"queue_date":"",
"estimated_cod":"2026-03-01",
"state":"OH"
},
{
"id":"EIA-67264-2",
"name":"Jackson Pike WWTP Cogen Engines",
"iso":"PJM",
"type":"generation",
"fuel_type":"other",
"capacity_mw":1.4,
"lat":39.9112,
"lon":-83.0165,
"status":"(TS) Construction complete, but not yet in commercial operation",
"queue_date":"",
"estimated_cod":"2026-03-01",
"state":"OH"
},
{
"id":"EIA-67445-1",
"name":"Logan City 2",
"iso":"PACE",
"type":"generation",
"fuel_type":"gas",
"capacity_mw":2.5,
"lat":41.6998,
"lon":-111.8598,
"status":"(V) Under construction, more than 50 percent complete",
"queue_date":"",
"estimated_cod":"2026-03-01",
"state":"UT"
},
{
"id":"EIA-67445-2",
"name":"Logan City 2",
"iso":"PACE",
"type":"generation",
"fuel_type":"gas",
"capacity_mw":2.5,
"lat":41.6998,
"lon":-111.8598,
"status":"(V) Under construction, more than 50 percent complete",
"queue_date":"",
"estimated_cod":"2026-03-01",
"state":"UT"
},
{
"id":"EIA-67445-3",
"name":"Logan City 2",
"iso":"PACE",
"type":"generation",
"fuel_type":"gas",
"capacity_mw":2.5,
"lat":41.6998,
"lon":-111.8598,
"status":"(V) Under construction, more than 50 percent complete",
"queue_date":"",
"estimated_cod":"2026-03-01",
"state":"UT"
},
{
"id":"EIA-67445-4",
"name":"Logan City 2",
"iso":"PACE",
"type":"generation",
"fuel_type":"gas",
"capacity_mw":2.5,
"lat":41.6998,
"lon":-111.8598,
"status":"(V) Under construction, more than 50 percent complete",
"queue_date":"",
"estimated_cod":"2026-03-01",
"state":"UT"
},
{
"id":"EIA-67756-MSRSP",
"name":"Mission Road Solar Park",
"iso":"MISO",
"type":"generation",
"fuel_type":"solar",
"capacity_mw":172.0,
"lat":43.6836,
"lon":-84.7852,
"status":"(TS) Construction complete, but not yet in commercial operation",
"queue_date":"",
"estimated_cod":"2026-03-01",
"state":"MI"
},
{
"id":"EIA-67797-BS",
"name":"Babacomari Solar",
"iso":"TEPC",
"type":"generation",
"fuel_type":"solar",
"capacity_mw":160.0,
"lat":31.6566,
"lon":-110.4134,
"status":"(TS) Construction complete, but not yet in commercial operation",
"queue_date":"",
"estimated_cod":"2026-03-01",
"state":"AZ"
},
{
"id":"EIA-67964-A400M",
"name":"Agave",
"iso":"AZPS",
"type":"generation",
"fuel_type":"battery",
"capacity_mw":150.0,
"lat":33.3239,
"lon":-112.8397,
"status":"(TS) Construction complete, but not yet in commercial operation",
"queue_date":"",
"estimated_cod":"2026-03-01",
"state":"AZ"
},
{
"id":"EIA-67997-PGR28",
"name":"Apex NC Solar",
"iso":"DUK",
"type":"generation",
"fuel_type":"solar",
"capacity_mw":28.9,
"lat":35.415,
"lon":-81.4781,
"status":"(V) Under construction, more than 50 percent complete",
"queue_date":"",
"estimated_cod":"2026-03-01",
"state":"NC"
},
{
"id":"EIA-68062-MPLR",
"name":"Montpelier Solar Project",
"iso":"PJM",
"type":"generation",
"fuel_type":"solar",
"capacity_mw":49.0,
"lat":41.59,
"lon":-84.56,
"status":"(TS) Construction complete, but not yet in commercial operation",
"queue_date":"",
"estimated_cod":"2026-03-01",
"state":"OH"
},
{
"id":"EIA-68088-TS1",
"name":"Twelvemile Solar 1",
"iso":"SPP",
"type":"generation",
"fuel_type":"solar",
"capacity_mw":152.0,
"lat":36.3316,
"lon":-95.2293,
"status":"(TS) Construction complete, but not yet in commercial operation",
"queue_date":"",
"estimated_cod":"2026-03-01",
"state":"OK"
},
{
"id":"EIA-68094-ARCAD",
"name":"SR Arcadia",
"iso":"MISO",
"type":"generation",
"fuel_type":"solar",
"capacity_mw":4.5,
"lat":32.5646,
"lon":-92.9254,
"status":"(V) Under construction, more than 50 percent complete",
"queue_date":"",
"estimated_cod":"2026-03-01",
"state":"LA"
},
{
"id":"EIA-68095-BENTN",
"name":"SR Benton",
"iso":"TVA",
"type":"generation",
"fuel_type":"solar",
"capacity_mw":3.0,
"lat":35.8799,
"lon":-88.1583,
"status":"(V) Under construction, more than 50 percent complete",
"queue_date":"",
"estimated_cod":"2026-03-01",
"state":"TN"
},
{
"id":"EIA-68097-CHERR",
"name":"SR Cherry Valley",
"iso":"MISO",
"type":"generation",
"fuel_type":"solar",
"capacity_mw":4.8,
"lat":35.3729,
"lon":-90.7708,
"status":"(V) Under construction, more than 50 percent complete",
"queue_date":"",
"estimated_cod":"2026-03-01",
"state":"AR"
},
{
"id":"EIA-68100-DUMAS",
"name":"SR Dumas",
"iso":"MISO",
"type":"generation",
"fuel_type":"solar",
"capacity_mw":4.8,
"lat":33.8917,
"lon":-91.4701,
"status":"(V) Under construction, more than 50 percent complete",
"queue_date":"",
"estimated_cod":"2026-03-01",
"state":"AR"
},
{
"id":"EIA-68101-FISHR",
"name":"SR Fisher",
"iso":"MISO",
"type":"generation",
"fuel_type":"solar",
"capacity_mw":4.8,
"lat":35.5004,
"lon":-90.9668,
"status":"(V) Under construction, more than 50 percent complete",
"queue_date":"",
"estimated_cod":"2026-03-01",
"state":"AR"
},
{
"id":"EIA-68103-HICK",
"name":"SR Hickman",
"iso":"TVA",
"type":"generation",
"fuel_type":"solar",
"capacity_mw":5.5,
"lat":35.928,
"lon":-87.2794,
"status":"(V) Under construction, more than 50 percent complete",
"queue_date":"",
"estimated_cod":"2026-03-01",
"state":"TN"
},
{
"id":"EIA-68112-GIBSN",
"name":"SR South Gibson",
"iso":"TVA",
"type":"generation",
"fuel_type":"solar",
"capacity_mw":4.8,
"lat":35.8264,
"lon":-88.8174,
"status":"(V) Under construction, more than 50 percent complete",
"queue_date":"",
"estimated_cod":"2026-03-01",
"state":"TN"
},
{
"id":"EIA-68118-CH404",
"name":"Addison 11-SLCHI404",
"iso":"PJM",
"type":"generation",
"fuel_type":"solar",
"capacity_mw":1.6,
"lat":41.9303,
"lon":-88.0485,
"status":"(TS) Construction complete, but not yet in commercial operation",
"queue_date":"",
"estimated_cod":"2026-03-01",
"state":"IL"
},
{
"id":"EIA-68192-LOTUS",
"name":"Lotus Wind",
"iso":"MISO",
"type":"generation",
"fuel_type":"wind",
"capacity_mw":200.0,
"lat":39.4984,
"lon":-89.9302,
"status":"(V) Under construction, more than 50 percent complete",
"queue_date":"",
"estimated_cod":"2026-03-01",
"state":"IL"
},
{
"id":"EIA-68223-67693",
"name":"Beaverdam Renewable Energy Center",
"iso":"DUK",
"type":"generation",
"fuel_type":"solar",
"capacity_mw":40.8,
"lat":34.6461,
"lon":-82.0309,
"status":"(U) Under construction, less than or equal to 50 percent complete",
"queue_date":"",
"estimated_cod":"2026-03-01",
"state":"SC"
},
{
"id":"EIA-68237-LA512",
"name":"South Bay Dis Ctr 20-SLLAX512",
"iso":"CAISO",
"type":"generation",
"fuel_type":"solar",
"capacity_mw":1.3,
"lat":33.8404,
"lon":-118.2287,
"status":"(TS) Construction complete, but not yet in commercial operation",
"queue_date":"",
"estimated_cod":"2026-03-01",
"state":"CA"
},
{
"id":"EIA-68238-LA113",
"name":"Commerce Distribution Center 4-SLLAX113",
"iso":"CAISO",
"type":"generation",
"fuel_type":"solar",
"capacity_mw":1.2,
"lat":33.9805,
"lon":-118.1582,
"status":"(U) Under construction, less than or equal to 50 percent complete",
"queue_date":"",
"estimated_cod":"2026-03-01",
"state":"CA"
},
{
"id":"EIA-68365-8681",
"name":"Old 300 Storage Center",
"iso":"ERCOT",
"type":"generation",
"fuel_type":"battery",
"capacity_mw":250.0,
"lat":29.3266,
"lon":-95.8118,
"status":"(TS) Construction complete, but not yet in commercial operation",
"queue_date":"",
"estimated_cod":"2026-03-01",
"state":"TX"
},
{
"id":"EIA-68410-BRAZ",
"name":"Brazoria Solar I",
"iso":"ERCOT",
"type":"generation",
"fuel_type":"solar",
"capacity_mw":125.0,
"lat":29.1388,
"lon":-95.3711,
"status":"(TS) Construction complete, but not yet in commercial operation",
"queue_date":"",
"estimated_cod":"2026-03-01",
"state":"TX"
},
{
"id":"EIA-68410-BRAZ2",
"name":"Brazoria Solar I",
"iso":"ERCOT",
"type":"generation",
"fuel_type":"solar",
"capacity_mw":125.0,
"lat":29.1388,
"lon":-95.3711,
"status":"(TS) Construction complete, but not yet in commercial operation",
"queue_date":"",
"estimated_cod":"2026-03-01",
"state":"TX"
},
{
"id":"EIA-68418-KEYDT",
"name":"Keydet Solar Center",
"iso":"PJM",
"type":"generation",
"fuel_type":"solar",
"capacity_mw":120.0,
"lat":37.4371,
"lon":-77.1587,
"status":"(V) Under construction, more than 50 percent complete",
"queue_date":"",
"estimated_cod":"2026-03-01",
"state":"VA"
},
{
"id":"EIA-68466-CFB1",
"name":"Centennial Flats",
"iso":"AZPS",
"type":"generation",
"fuel_type":"battery",
"capacity_mw":89.0,
"lat":33.5883,
"lon":-113.5283,
"status":"(U) Under construction, less than or equal to 50 percent complete",
"queue_date":"",
"estimated_cod":"2026-03-01",
"state":"AZ"
},
{
"id":"EIA-68466-CFB2",
"name":"Centennial Flats",
"iso":"AZPS",
"type":"generation",
"fuel_type":"battery",
"capacity_mw":89.0,
"lat":33.5883,
"lon":-113.5283,
"status":"(U) Under construction, less than or equal to 50 percent complete",
"queue_date":"",
"estimated_cod":"2026-03-01",
"state":"AZ"
},
{
"id":"EIA-68466-CFB3",
"name":"Centennial Flats",
"iso":"AZPS",
"type":"generation",
"fuel_type":"battery",
"capacity_mw":89.0,
"lat":33.5883,
"lon":-113.5283,
"status":"(U) Under construction, less than or equal to 50 percent complete",
"queue_date":"",
"estimated_cod":"2026-03-01",
"state":"AZ"
},
{
"id":"EIA-68466-CFPV1",
"name":"Centennial Flats",
"iso":"AZPS",
"type":"generation",
"fuel_type":"solar",
"capacity_mw":166.7,
"lat":33.5883,
"lon":-113.5283,
"status":"(U) Under construction, less than or equal to 50 percent complete",
"queue_date":"",
"estimated_cod":"2026-03-01",
"state":"AZ"
},
{
"id":"EIA-68466-CFPV2",
"name":"Centennial Flats",
"iso":"AZPS",
"type":"generation",
"fuel_type":"solar",
"capacity_mw":166.7,
"lat":33.5883,
"lon":-113.5283,
"status":"(U) Under construction, less than or equal to 50 percent complete",
"queue_date":"",
"estimated_cod":"2026-03-01",
"state":"AZ"
},
{
"id":"EIA-68466-CFPV3",
"name":"Centennial Flats",
"iso":"AZPS",
"type":"generation",
"fuel_type":"solar",
"capacity_mw":166.7,
"lat":33.5883,
"lon":-113.5283,
"status":"(U) Under construction, less than or equal to 50 percent complete",
"queue_date":"",
"estimated_cod":"2026-03-01",
"state":"AZ"
},
{
"id":"EIA-68481-HS2",
"name":"Hill Solar II",
"iso":"ERCOT",
"type":"generation",
"fuel_type":"solar",
"capacity_mw":200.0,
"lat":32.1152,
"lon":-97.0678,
"status":"(V) Under construction, more than 50 percent complete",
"queue_date":"",
"estimated_cod":"2026-03-01",
"state":"TX"
},
{
"id":"EIA-68492-GEN01",
"name":"Sun Pond",
"iso":"SRP",
"type":"generation",
"fuel_type":"solar",
"capacity_mw":85.0,
"lat":33.3812,
"lon":-112.8216,
"status":"(V) Under construction, more than 50 percent complete",
"queue_date":"",
"estimated_cod":"2026-03-01",
"state":"AZ"
},
{
"id":"EIA-68492-GEN02",
"name":"Sun Pond",
"iso":"SRP",
"type":"generation",
"fuel_type":"battery",
"capacity_mw":85.0,
"lat":33.3812,
"lon":-112.8216,
"status":"(V) Under construction, more than 50 percent complete",
"queue_date":"",
"estimated_cod":"2026-03-01",
"state":"AZ"
},
{
"id":"EIA-68494-SHRK1",
"name":"Shirk Energy Storage",
"iso":"CAISO",
"type":"generation",
"fuel_type":"battery",
"capacity_mw":80.0,
"lat":36.3508,
"lon":-119.3735,
"status":"(TS) Construction complete, but not yet in commercial operation",
"queue_date":"",
"estimated_cod":"2026-03-01",
"state":"CA"
},
{
"id":"EIA-68499-CWHBA",
"name":"Crowned Heron 1 - Storage, LLC",
"iso":"ERCOT",
"type":"generation",
"fuel_type":"battery",
"capacity_mw":150.0,
"lat":29.4822,
"lon":-95.6189,
"status":"(TS) Construction complete, but not yet in commercial operation",
"queue_date":"",
"estimated_cod":"2026-03-01",
"state":"TX"
},
{
"id":"EIA-68509-VNT",
"name":"Ventasso Energy Storage, LLC",
"iso":"CAISO",
"type":"generation",
"fuel_type":"battery",
"capacity_mw":50.0,
"lat":32.7967,
"lon":-116.97,
"status":"(V) Under construction, more than 50 percent complete",
"queue_date":"",
"estimated_cod":"2026-03-01",
"state":"CA"
},
{
"id":"EIA-68517-BHS",
"name":"Boot Hill Solar",
"iso":"SPP",
"type":"generation",
"fuel_type":"solar",
"capacity_mw":150.0,
"lat":37.6939,
"lon":-99.9864,
"status":"(V) Under construction, more than 50 percent complete",
"queue_date":"",
"estimated_cod":"2026-03-01",
"state":"KS"
},
{
"id":"EIA-68526-11B",
"name":"Kama 1 LLC",
"iso":"CAISO",
"type":"generation",
"fuel_type":"battery",
"capacity_mw":0.4,
"lat":38.9911,
"lon":-123.1027,
"status":"(TS) Construction complete, but not yet in commercial operation",
"queue_date":"",
"estimated_cod":"2026-03-01",
"state":"CA"
},
{
"id":"EIA-68529-FS01",
"name":"Flatland Storage",
"iso":"SRP",
"type":"generation",
"fuel_type":"battery",
"capacity_mw":200.0,
"lat":32.9192,
"lon":-111.4989,
"status":"(TS) Construction complete, but not yet in commercial operation",
"queue_date":"",
"estimated_cod":"2026-03-01",
"state":"AZ"
},
{
"id":"EIA-68540-6245",
"name":"Bayer Oxnard - Meter# 4719",
"iso":"CAISO",
"type":"generation",
"fuel_type":"solar",
"capacity_mw":1.3,
"lat":34.2034,
"lon":-119.1394,
"status":"(V) Under construction, more than 50 percent complete",
"queue_date":"",
"estimated_cod":"2026-03-01",
"state":"CA"
},
{
"id":"EIA-68549-PNVW1",
"name":"Pineview Solar, LLC",
"iso":"SOCO",
"type":"generation",
"fuel_type":"solar",
"capacity_mw":80.0,
"lat":31.995,
"lon":-83.544,
"status":"(TS) Construction complete, but not yet in commercial operation",
"queue_date":"",
"estimated_cod":"2026-03-01",
"state":"GA"
},
{
"id":"EIA-68580-MHB",
"name":"Headcamp BESS",
"iso":"ERCOT",
"type":"generation",
"fuel_type":"battery",
"capacity_mw":150.0,
"lat":30.9161,
"lon":-102.8553,
"status":"(U) Under construction, less than or equal to 50 percent complete",
"queue_date":"",
"estimated_cod":"2026-03-01",
"state":"TX"
},
{
"id":"EIA-68592-OERHA",
"name":"Rockhound A",
"iso":"ERCOT",
"type":"generation",
"fuel_type":"solar",
"capacity_mw":245.0,
"lat":31.7231,
"lon":-102.5196,
"status":"(V) Under construction, more than 50 percent complete",
"queue_date":"",
"estimated_cod":"2026-03-01",
"state":"TX"
},
{
"id":"EIA-68669-OEALH",
"name":"Walker Springs II",
"iso":"SOCO",
"type":"generation",
"fuel_type":"solar",
"capacity_mw":80.0,
"lat":31.435,
"lon":-87.7047,
"status":"(V) Under construction, more than 50 percent complete",
"queue_date":"",
"estimated_cod":"2026-03-01",
"state":"AL"
},
{
"id":"EIA-68786-USMNC",
"name":"Choctaw Fields Solar Project, LLC",
"iso":"SPP",
"type":"generation",
"fuel_type":"solar",
"capacity_mw":85.0,
"lat":34.0307,
"lon":-95.3221,
"status":"(TS) Construction complete, but not yet in commercial operation",
"queue_date":"",
"estimated_cod":"2026-03-01",
"state":"OK"
},
{
"id":"EIA-68839-RRPS",
"name":"Hecate Energy Longhorn Solar LLC",
"iso":"ERCOT",
"type":"generation",
"fuel_type":"solar",
"capacity_mw":650.0,
"lat":33.0442,
"lon":-98.3405,
"status":"(TS) Construction complete, but not yet in commercial operation",
"queue_date":"",
"estimated_cod":"2026-03-01",
"state":"TX"
},
{
"id":"EIA-68851-HSPV1",
"name":"Hermes Solar PV",
"iso":"ERCOT",
"type":"generation",
"fuel_type":"solar",
"capacity_mw":100.4,
"lat":30.9898,
"lon":-97.1498,
"status":"(V) Under construction, more than 50 percent complete",
"queue_date":"",
"estimated_cod":"2026-03-01",
"state":"TX"
},
{
"id":"EIA-68852-HSBE1",
"name":"Hermes Storage BESS",
"iso":"ERCOT",
"type":"generation",
"fuel_type":"battery",
"capacity_mw":100.4,
"lat":30.9816,
"lon":-97.1429,
"status":"(V) Under construction, more than 50 percent complete",
"queue_date":"",
"estimated_cod":"2026-03-01",
"state":"TX"
},
{
"id":"EIA-68853-LMWOD",
"name":"Limewood Bell Renewables Solar",
"iso":"ERCOT",
"type":"generation",
"fuel_type":"solar",
"capacity_mw":204.0,
"lat":31.1294,
"lon":-97.2614,
"status":"(TS) Construction complete, but not yet in commercial operation",
"queue_date":"",
"estimated_cod":"2026-03-01",
"state":"TX"
},
{
"id":"EIA-68854-ABESS",
"name":"Angela Solar Project",
"iso":"CAISO",
"type":"generation",
"fuel_type":"battery",
"capacity_mw":40.0,
"lat":35.8656,
"lon":-119.4559,
"status":"(V) Under construction, more than 50 percent complete",
"queue_date":"",
"estimated_cod":"2026-03-01",
"state":"CA"
},
{
"id":"EIA-68854-ANG1",
"name":"Angela Solar Project",
"iso":"CAISO",
"type":"generation",
"fuel_type":"solar",
"capacity_mw":40.0,
"lat":35.8656,
"lon":-119.4559,
"status":"(V) Under construction, more than 50 percent complete",
"queue_date":"",
"estimated_cod":"2026-03-01",
"state":"CA"
},
{
"id":"EIA-68873-BIGS",
"name":"Big Sampson Wind",
"iso":"ERCOT",
"type":"generation",
"fuel_type":"wind",
"capacity_mw":265.0,
"lat":30.9819,
"lon":-101.8505,
"status":"(TS) Construction complete, but not yet in commercial operation",
"queue_date":"",
"estimated_cod":"2026-03-01",
"state":"TX"
},
{
"id":"EIA-68908-45067",
"name":"Tesoro RV & Boat Storage",
"iso":"CAISO",
"type":"generation",
"fuel_type":"solar",
"capacity_mw":2.5,
"lat":37.7766,
"lon":-121.1869,
"status":"(TS) Construction complete, but not yet in commercial operation",
"queue_date":"",
"estimated_cod":"2026-03-01",
"state":"CA"
},
{
"id":"EIA-68938-OHJE1",
"name":"Juliet Energy Project, LLC",
"iso":"PJM",
"type":"generation",
"fuel_type":"solar",
"capacity_mw":50.0,
"lat":41.3438,
"lon":-83.816,
"status":"(V) Under construction, more than 50 percent complete",
"queue_date":"",
"estimated_cod":"2026-03-01",
"state":"OH"
},
{
"id":"EIA-68954-ALPHB",
"name":"Alpaugh BESS",
"iso":"CAISO",
"type":"generation",
"fuel_type":"battery",
"capacity_mw":10.0,
"lat":35.897,
"lon":-119.4465,
"status":"(V) Under construction, more than 50 percent complete",
"queue_date":"",
"estimated_cod":"2026-03-01",
"state":"CA"
},
{
"id":"EIA-69018-NY10",
"name":"Pivot Solar NY 10",
"iso":"NYISO",
"type":"generation",
"fuel_type":"solar",
"capacity_mw":5.0,
"lat":44.6734,
"lon":-75.4888,
"status":"(V) Under construction, more than 50 percent complete",
"queue_date":"",
"estimated_cod":"2026-03-01",
"state":"NY"
},
{
"id":"EIA-69041-ISBA",
"name":"Iron Springs BESS",
"iso":"PACE",
"type":"generation",
"fuel_type":"battery",
"capacity_mw":80.0,
"lat":37.7289,
"lon":-113.1498,
"status":"(TS) Construction complete, but not yet in commercial operation",
"queue_date":"",
"estimated_cod":"2026-03-01",
"state":"UT"
},
{
"id":"EIA-69043-BC25",
"name":"Big Creek Solar (IL)",
"iso":"MISO",
"type":"generation",
"fuel_type":"solar",
"capacity_mw":5.0,
"lat":39.0709,
"lon":-90.1398,
"status":"(TS) Construction complete, but not yet in commercial operation",
"queue_date":"",
"estimated_cod":"2026-03-01",
"state":"IL"
},
{
"id":"EIA-69053-IL60",
"name":"ILL060-Sangamon-Atchison",
"iso":"MISO",
"type":"generation",
"fuel_type":"solar",
"capacity_mw":2.0,
"lat":39.8499,
"lon":-89.2999,
"status":"(V) Under construction, more than 50 percent complete",
"queue_date":"",
"estimated_cod":"2026-03-01",
"state":"IL"
},
{
"id":"EIA-69054-ALT2",
"name":"ATLAS II",
"iso":"CAISO",
"type":"generation",
"fuel_type":"solar",
"capacity_mw":100.0,
"lat":33.5829,
"lon":-113.5769,
"status":"(V) Under construction, more than 50 percent complete",
"queue_date":"",
"estimated_cod":"2026-03-01",
"state":"AZ"
},
{
"id":"EIA-69100-RKMB",
"name":"Rocky Mountain Solar",
"iso":"PSCO",
"type":"generation",
"fuel_type":"battery",
"capacity_mw":200.0,
"lat":38.1532,
"lon":-104.5763,
"status":"(U) Under construction, less than or equal to 50 percent complete",
"queue_date":"",
"estimated_cod":"2026-03-01",
"state":"CO"
},
{
"id":"EIA-69107-XCL-1",
"name":"XCEL-1",
"iso":"SPP",
"type":"generation",
"fuel_type":"solar",
"capacity_mw":5.0,
"lat":33.3266,
"lon":-104.536,
"status":"(V) Under construction, more than 50 percent complete",
"queue_date":"",
"estimated_cod":"2026-03-01",
"state":"NM"
},
{
"id":"EIA-69136-REDBA",
"name":"Redemeyer Road Solar",
"iso":"CAISO",
"type":"generation",
"fuel_type":"battery",
"capacity_mw":4.0,
"lat":39.1823,
"lon":-123.1906,
"status":"(TS) Construction complete, but not yet in commercial operation",
"queue_date":"",
"estimated_cod":"2026-03-01",
"state":"CA"
},
{
"id":"EIA-69136-REDPV",
"name":"Redemeyer Road Solar",
"iso":"CAISO",
"type":"generation",
"fuel_type":"solar",
"capacity_mw":4.0,
"lat":39.1823,
"lon":-123.1906,
"status":"(TS) Construction complete, but not yet in commercial operation",
"queue_date":"",
"estimated_cod":"2026-03-01",
"state":"CA"
},
{
"id":"EIA-69149-ANSN2",
"name":"Anson 2 Solar",
"iso":"ERCOT",
"type":"generation",
"fuel_type":"solar",
"capacity_mw":218.5,
"lat":32.8056,
"lon":-99.919,
"status":"(V) Under construction, more than 50 percent complete",
"queue_date":"",
"estimated_cod":"2026-03-01",
"state":"TX"
},
{
"id":"EIA-69152-WZRD",
"name":"Wizard Energy Storage",
"iso":"ERCOT",
"type":"generation",
"fuel_type":"battery",
"capacity_mw":150.0,
"lat":29.4994,
"lon":-95.0851,
"status":"(V) Under construction, more than 50 percent complete",
"queue_date":"",
"estimated_cod":"2026-03-01",
"state":"TX"
},
{
"id":"EIA-69165-BESS1",
"name":"Bayside Battery Storage",
"iso":"TEC",
"type":"generation",
"fuel_type":"battery",
"capacity_mw":20.0,
"lat":27.9075,
"lon":-82.4113,
"status":"(TS) Construction complete, but not yet in commercial operation",
"queue_date":"",
"estimated_cod":"2026-03-01",
"state":"FL"
},
{
"id":"EIA-69202-11203",
"name":"KE109",
"iso":"PJM",
"type":"generation",
"fuel_type":"solar",
"capacity_mw":3.5,
"lat":41.648,
"lon":-88.5834,
"status":"(V) Under construction, more than 50 percent complete",
"queue_date":"",
"estimated_cod":"2026-03-01",
"state":"IL"
},
{
"id":"EIA-69231-SR3",
"name":"Sunset Road Solar 3",
"iso":"MISO",
"type":"generation",
"fuel_type":"solar",
"capacity_mw":5.0,
"lat":39.1508,
"lon":-89.768,
"status":"(V) Under construction, more than 50 percent complete",
"queue_date":"",
"estimated_cod":"2026-03-01",
"state":"IL"
},
{
"id":"EIA-69232-SR4",
"name":"Sunset Road Solar 4",
"iso":"MISO",
"type":"generation",
"fuel_type":"solar",
"capacity_mw":2.5,
"lat":39.1508,
"lon":-89.768,
"status":"(V) Under construction, more than 50 percent complete",
"queue_date":"",
"estimated_cod":"2026-03-01",
"state":"IL"
},
{
"id":"EIA-69234-MPBA1",
"name":"Meadow Park Energy Center",
"iso":"ERCOT",
"type":"generation",
"fuel_type":"battery",
"capacity_mw":9.9,
"lat":32.8459,
"lon":-97.2274,
"status":"(V) Under construction, more than 50 percent complete",
"queue_date":"",
"estimated_cod":"2026-03-01",
"state":"TX"
},
{
"id":"EIA-69260-MEXA1",
"name":"Mexia Solar Project",
"iso":"ERCOT",
"type":"generation",
"fuel_type":"solar",
"capacity_mw":4.0,
"lat":31.7056,
"lon":-96.5189,
"status":"(V) Under construction, more than 50 percent complete",
"queue_date":"",
"estimated_cod":"2026-03-01",
"state":"TX"
},
{
"id":"EIA-69260-MEXA2",
"name":"Mexia Solar Project",
"iso":"ERCOT",
"type":"generation",
"fuel_type":"solar",
"capacity_mw":4.0,
"lat":31.7056,
"lon":-96.5189,
"status":"(V) Under construction, more than 50 percent complete",
"queue_date":"",
"estimated_cod":"2026-03-01",
"state":"TX"
},
{
"id":"EIA-69266-ROCKH",
"name":"Rockhound Sol Solar CSG",
"iso":"PNM",
"type":"generation",
"fuel_type":"solar",
"capacity_mw":4.0,
"lat":32.1617,
"lon":-107.8022,
"status":"(V) Under construction, more than 50 percent complete",
"queue_date":"",
"estimated_cod":"2026-03-01",
"state":"NM"
},
{
"id":"EIA-69270-JUNIP",
"name":"Juniper Sol Solar CSG",
"iso":"PNM",
"type":"generation",
"fuel_type":"solar",
"capacity_mw":5.0,
"lat":35.5089,
"lon":-105.9517,
"status":"(V) Under construction, more than 50 percent complete",
"queue_date":"",
"estimated_cod":"2026-03-01",
"state":"NM"
},
{
"id":"EIA-69282-STFRD",
"name":"Stafford Solar One",
"iso":"ISO-NE",
"type":"generation",
"fuel_type":"solar",
"capacity_mw":4.0,
"lat":41.95,
"lon":-72.25,
"status":"(V) Under construction, more than 50 percent complete",
"queue_date":"",
"estimated_cod":"2026-03-01",
"state":"CT"
},
{
"id":"EIA-69293-WTS1",
"name":"Waterton Solar I",
"iso":"PSCO",
"type":"generation",
"fuel_type":"solar",
"capacity_mw":4.0,
"lat":39.5,
"lon":-105.07,
"status":"(U) Under construction, less than or equal to 50 percent complete",
"queue_date":"",
"estimated_cod":"2026-03-01",
"state":"CO"
},
{
"id":"EIA-69297-STBA1",
"name":"BESS Stadium",
"iso":"ERCOT",
"type":"generation",
"fuel_type":"battery",
"capacity_mw":10.0,
"lat":27.7459,
"lon":-98.0544,
"status":"(TS) Construction complete, but not yet in commercial operation",
"queue_date":"",
"estimated_cod":"2026-03-01",
"state":"TX"
},
{
"id":"EIA-69311-BLTB",
"name":"Blount BESS",
"iso":"MISO",
"type":"generation",
"fuel_type":"battery",
"capacity_mw":7.0,
"lat":43.0789,
"lon":-89.3739,
"status":"(V) Under construction, more than 50 percent complete",
"queue_date":"",
"estimated_cod":"2026-03-01",
"state":"WI"
},
{
"id":"EIA-69312-HKPB",
"name":"Huiskamp BESS",
"iso":"MISO",
"type":"generation",
"fuel_type":"battery",
"capacity_mw":7.0,
"lat":43.1583,
"lon":-89.4114,
"status":"(V) Under construction, more than 50 percent complete",
"queue_date":"",
"estimated_cod":"2026-03-01",
"state":"WI"
},
{
"id":"EIA-69313-WMB",
"name":"West Middleton BESS",
"iso":"MISO",
"type":"generation",
"fuel_type":"battery",
"capacity_mw":7.0,
"lat":43.0934,
"lon":-89.5698,
"status":"(V) Under construction, more than 50 percent complete",
"queue_date":"",
"estimated_cod":"2026-03-01",
"state":"WI"
},
{
"id":"EIA-69322-ELMST",
"name":"Elm Street BESS",
"iso":"ERCOT",
"type":"generation",
"fuel_type":"battery",
"capacity_mw":9.9,
"lat":31.4275,
"lon":-103.4994,
"status":"(V) Under construction, more than 50 percent complete",
"queue_date":"",
"estimated_cod":"2026-03-01",
"state":"TX"
},
{
"id":"EIA-69323-HWY6",
"name":"Highway 6 BESS",
"iso":"ERCOT",
"type":"generation",
"fuel_type":"battery",
"capacity_mw":9.9,
"lat":30.4423,
"lon":-96.1314,
"status":"(V) Under construction, more than 50 percent complete",
"queue_date":"",
"estimated_cod":"2026-03-01",
"state":"TX"
},
{
"id":"EIA-69342-MILT",
"name":"Regis Milton",
"iso":"ERCOT",
"type":"generation",
"fuel_type":"battery",
"capacity_mw":9.9,
"lat":29.0574,
"lon":-97.788,
"status":"(TS) Construction complete, but not yet in commercial operation",
"queue_date":"",
"estimated_cod":"2026-03-01",
"state":"TX"
},
{
"id":"EIA-69359-BARS1",
"name":"Barrett Solar Project",
"iso":"ERCOT",
"type":"generation",
"fuel_type":"solar",
"capacity_mw":125.0,
"lat":32.9516,
"lon":-95.9031,
"status":"(TS) Construction complete, but not yet in commercial operation",
"queue_date":"",
"estimated_cod":"2026-03-01",
"state":"TX"
},
{
"id":"EIA-69360-BAYS1",
"name":"Bynum Solar Project",
"iso":"ERCOT",
"type":"generation",
"fuel_type":"solar",
"capacity_mw":56.0,
"lat":31.5851,
"lon":-97.6647,
"status":"(V) Under construction, more than 50 percent complete",
"queue_date":"",
"estimated_cod":"2026-03-01",
"state":"TX"
},
{
"id":"EIA-69370-CONEJ",
"name":"RP Minnesota Solar",
"iso":"CAISO",
"type":"generation",
"fuel_type":"solar",
"capacity_mw":1.8,
"lat":34.2002,
"lon":-118.9281,
"status":"(V) Under construction, more than 50 percent complete",
"queue_date":"",
"estimated_cod":"2026-03-01",
"state":"CA"
},
{
"id":"EIA-69376-MACHI",
"name":"Machias PV",
"iso":"NYISO",
"type":"generation",
"fuel_type":"solar",
"capacity_mw":2.0,
"lat":42.409,
"lon":-78.4908,
"status":"(V) Under construction, more than 50 percent complete",
"queue_date":"",
"estimated_cod":"2026-03-01",
"state":"NY"
},
{
"id":"EIA-69416-PC2",
"name":"Aggreko MSR Grid PC2",
"iso":"ERCOT",
"type":"generation",
"fuel_type":"battery",
"capacity_mw":10.0,
"lat":27.8059,
"lon":-97.4612,
"status":"(TS) Construction complete, but not yet in commercial operation",
"queue_date":"",
"estimated_cod":"2026-03-01",
"state":"TX"
},
{
"id":"EIA-69417-PC5",
"name":"Aggreko MSR Grid PC5",
"iso":"ERCOT",
"type":"generation",
"fuel_type":"battery",
"capacity_mw":10.0,
"lat":26.1921,
"lon":-97.6603,
"status":"(TS) Construction complete, but not yet in commercial operation",
"queue_date":"",
"estimated_cod":"2026-03-01",
"state":"TX"
},
{
"id":"EIA-69418-PC7",
"name":"Aggreko MSR Grid PC7",
"iso":"ERCOT",
"type":"generation",
"fuel_type":"battery",
"capacity_mw":10.0,
"lat":26.0014,
"lon":-97.5218,
"status":"(TS) Construction complete, but not yet in commercial operation",
"queue_date":"",
"estimated_cod":"2026-03-01",
"state":"TX"
},
{
"id":"EIA-69422-CTRD",
"name":"County Road BESS",
"iso":"ERCOT",
"type":"generation",
"fuel_type":"battery",
"capacity_mw":9.9,
"lat":31.4008,
"lon":-103.4944,
"status":"(V) Under construction, more than 50 percent complete",
"queue_date":"",
"estimated_cod":"2026-03-01",
"state":"TX"
},
{
"id":"EIA-69436-SA502",
"name":"Prologis Portside 2509 - SLSAV502",
"iso":"SOCO",
"type":"generation",
"fuel_type":"solar",
"capacity_mw":2.2,
"lat":32.1221,
"lon":-81.1775,
"status":"(TS) Construction complete, but not yet in commercial operation",
"queue_date":"",
"estimated_cod":"2026-03-01",
"state":"GA"
},
{
"id":"EIA-69437-BA204",
"name":"Lathrop 4 - SLCVA204",
"iso":"CAISO",
"type":"generation",
"fuel_type":"battery",
"capacity_mw":2.0,
"lat":37.8094,
"lon":-121.283,
"status":"(TS) Construction complete, but not yet in commercial operation",
"queue_date":"",
"estimated_cod":"2026-03-01",
"state":"CA"
},
{
"id":"EIA-69437-CV204",
"name":"Lathrop 4 - SLCVA204",
"iso":"CAISO",
"type":"generation",
"fuel_type":"solar",
"capacity_mw":1.4,
"lat":37.8094,
"lon":-121.283,
"status":"(U) Under construction, less than or equal to 50 percent complete",
"queue_date":"",
"estimated_cod":"2026-03-01",
"state":"CA"
},
{
"id":"EIA-69438-CN405",
"name":"Prologis Edison 0405 - SLCNJ405",
"iso":"PJM",
"type":"generation",
"fuel_type":"solar",
"capacity_mw":1.2,
"lat":40.5178,
"lon":-74.4174,
"status":"(TS) Construction complete, but not yet in commercial operation",
"queue_date":"",
"estimated_cod":"2026-03-01",
"state":"NJ"
},
{
"id":"EIA-69451-WCAMP",
"name":"West Camp Wind Farm",
"iso":"AZPS",
"type":"generation",
"fuel_type":"wind",
"capacity_mw":500.0,
"lat":34.7357,
"lon":-110.4249,
"status":"(V) Under construction, more than 50 percent complete",
"queue_date":"",
"estimated_cod":"2026-03-01",
"state":"AZ"
},
{
"id":"EIA-69538-TS2",
"name":"Twelvemile Solar 2",
"iso":"SPP",
"type":"generation",
"fuel_type":"solar",
"capacity_mw":52.2,
"lat":36.3316,
"lon":-95.2293,
"status":"(TS) Construction complete, but not yet in commercial operation",
"queue_date":"",
"estimated_cod":"2026-03-01",
"state":"OK"
},
{
"id":"EIA-69555-WESTP",
"name":"Citrine NJ - West Pkwy",
"iso":"PJM",
"type":"generation",
"fuel_type":"solar",
"capacity_mw":2.3,
"lat":40.9809,
"lon":-74.3071,
"status":"(TS) Construction complete, but not yet in commercial operation",
"queue_date":"",
"estimated_cod":"2026-03-01",
"state":"NJ"
},
{
"id":"EIA-69558-GRANT",
"name":"Pluma - SLT Grant",
"iso":"PNM",
"type":"generation",
"fuel_type":"solar",
"capacity_mw":4.8,
"lat":32.7623,
"lon":-108.1793,
"status":"(TS) Construction complete, but not yet in commercial operation",
"queue_date":"",
"estimated_cod":"2026-03-01",
"state":"NM"
},
{
"id":"EIA-69559-DALGO",
"name":"Pluma - SLT Hidalgo",
"iso":"PNM",
"type":"generation",
"fuel_type":"solar",
"capacity_mw":3.8,
"lat":32.3704,
"lon":-108.7079,
"status":"(TS) Construction complete, but not yet in commercial operation",
"queue_date":"",
"estimated_cod":"2026-03-01",
"state":"NM"
},
{
"id":"EIA-69561-LINCO",
"name":"Sunrise Solar Lincoln DE",
"iso":"PJM",
"type":"generation",
"fuel_type":"solar",
"capacity_mw":4.0,
"lat":38.8535,
"lon":-75.4012,
"status":"(TS) Construction complete, but not yet in commercial operation",
"queue_date":"",
"estimated_cod":"2026-03-01",
"state":"DE"
},
{
"id":"EIA-69570-KIEFF",
"name":"Kieffer Funk",
"iso":"PJM",
"type":"generation",
"fuel_type":"solar",
"capacity_mw":12.0,
"lat":39.625,
"lon":-77.6435,
"status":"(TS) Construction complete, but not yet in commercial operation",
"queue_date":"",
"estimated_cod":"2026-03-01",
"state":"MD"
},
{
"id":"EIA-69610-USTGS",
"name":"USS Tall Grass Solar LLC",
"iso":"PSCO",
"type":"generation",
"fuel_type":"solar",
"capacity_mw":5.0,
"lat":39.6655,
"lon":-104.7164,
"status":"(V) Under construction, more than 50 percent complete",
"queue_date":"",
"estimated_cod":"2026-03-01",
"state":"CO"
},
{
"id":"EIA-69611-USCA",
"name":"USS Calico Solar LLC",
"iso":"PSCO",
"type":"generation",
"fuel_type":"solar",
"capacity_mw":5.0,
"lat":39.6578,
"lon":-104.7163,
"status":"(V) Under construction, more than 50 percent complete",
"queue_date":"",
"estimated_cod":"2026-03-01",
"state":"CO"
},
{
"id":"EIA-69612-USGPL",
"name":"USS Great Plains Solar LLC",
"iso":"PSCO",
"type":"generation",
"fuel_type":"solar",
"capacity_mw":5.0,
"lat":39.6533,
"lon":-104.7254,
"status":"(V) Under construction, more than 50 percent complete",
"queue_date":"",
"estimated_cod":"2026-03-01",
"state":"CO"
},
{
"id":"EIA-69614-USHPL",
"name":"USS High Plains Solar LLC",
"iso":"PSCO",
"type":"generation",
"fuel_type":"solar",
"capacity_mw":5.0,
"lat":39.6533,
"lon":-104.7254,
"status":"(V) Under construction, more than 50 percent complete",
"queue_date":"",
"estimated_cod":"2026-03-01",
"state":"CO"
},
{
"id":"EIA-69619-CN005",
"name":"Prologis Edison 0503 - SLCNJ005",
"iso":"PJM",
"type":"generation",
"fuel_type":"solar",
"capacity_mw":1.4,
"lat":40.5299,
"lon":-74.3985,
"status":"(TS) Construction complete, but not yet in commercial operation",
"queue_date":"",
"estimated_cod":"2026-03-01",
"state":"NJ"
},
{
"id":"EIA-69620-WTS2",
"name":"Waterton Solar II",
"iso":"PSCO",
"type":"generation",
"fuel_type":"solar",
"capacity_mw":4.0,
"lat":39.5,
"lon":-105.07,
"status":"(U) Under construction, less than or equal to 50 percent complete",
"queue_date":"",
"estimated_cod":"2026-03-01",
"state":"CO"
},
{
"id":"EIA-69625-MRPV",
"name":"Moore Rd",
"iso":"NYISO",
"type":"generation",
"fuel_type":"solar",
"capacity_mw":4.8,
"lat":42.6125,
"lon":-73.6536,
"status":"(TS) Construction complete, but not yet in commercial operation",
"queue_date":"",
"estimated_cod":"2026-03-01",
"state":"NY"
},
{
"id":"EIA-201-3",
"name":"Thomas Fitzhugh",
"iso":"SPP",
"type":"generation",
"fuel_type":"gas",
"capacity_mw":71.2,
"lat":35.4624,
"lon":-93.8049,
"status":"(V) Under construction, more than 50 percent complete",
"queue_date":"",
"estimated_cod":"2026-04-01",
"state":"AR"
},
{
"id":"EIA-201-4",
"name":"Thomas Fitzhugh",
"iso":"SPP",
"type":"generation",
"fuel_type":"gas",
"capacity_mw":69.3,
"lat":35.4624,
"lon":-93.8049,
"status":"(V) Under construction, more than 50 percent complete",
"queue_date":"",
"estimated_cod":"2026-04-01",
"state":"AR"
},
{
"id":"EIA-2316-6",
"name":"Wisner",
"iso":"SPP",
"type":"generation",
"fuel_type":"oil",
"capacity_mw":1.5,
"lat":41.9881,
"lon":-96.916,
"status":"(P) Planned for installation, but regulatory approvals not initiated",
"queue_date":"",
"estimated_cod":"2026-04-01",
"state":"NE"
},
{
"id":"EIA-50969-GEN10",
"name":"MU Combined Heat and Power Plant",
"iso":"MISO",
"type":"generation",
"fuel_type":"gas",
"capacity_mw":9.0,
"lat":38.9461,
"lon":-92.3328,
"status":"(V) Under construction, more than 50 percent complete",
"queue_date":"",
"estimated_cod":"2026-04-01",
"state":"MO"
},
{
"id":"EIA-56915-5",
"name":"SAS Solar Farm",
"iso":"CPLE",
"type":"generation",
"fuel_type":"solar",
"capacity_mw":1.0,
"lat":35.8136,
"lon":-78.7503,
"status":"(U) Under construction, less than or equal to 50 percent complete",
"queue_date":"",
"estimated_cod":"2026-04-01",
"state":"NC"
},
{
"id":"EIA-57679-AVSE1",
"name":"Arlington Valley Solar Energy I",
"iso":"AZPS",
"type":"generation",
"fuel_type":"solar",
"capacity_mw":127.0,
"lat":33.3217,
"lon":-112.8806,
"status":"(TS) Construction complete, but not yet in commercial operation",
"queue_date":"",
"estimated_cod":"2026-04-01",
"state":"AZ"
},
{
"id":"EIA-62729-PAIN1",
"name":"Painter Energy Storage",
"iso":"CAISO",
"type":"generation",
"fuel_type":"battery",
"capacity_mw":10.0,
"lat":34.41,
"lon":-119.515,
"status":"(TS) Construction complete, but not yet in commercial operation",
"queue_date":"",
"estimated_cod":"2026-04-01",
"state":"CA"
},
{
"id":"EIA-64672-BLUJS",
"name":"Blue Jay Solar I, LLC",
"iso":"ERCOT",
"type":"generation",
"fuel_type":"solar",
"capacity_mw":210.0,
"lat":30.7053,
"lon":-96.0698,
"status":"(TS) Construction complete, but not yet in commercial operation",
"queue_date":"",
"estimated_cod":"2026-04-01",
"state":"TX"
},
{
"id":"EIA-64859-RADBA",
"name":"IP Radian, LLC",
"iso":"ERCOT",
"type":"generation",
"fuel_type":"battery",
"capacity_mw":160.0,
"lat":31.5481,
"lon":-99.1872,
"status":"(TS) Construction complete, but not yet in commercial operation",
"queue_date":"",
"estimated_cod":"2026-04-01",
"state":"TX"
},
{
"id":"EIA-65043-DUSO",
"name":"Dulles Solar and Storage",
"iso":"PJM",
"type":"generation",
"fuel_type":"solar",
"capacity_mw":100.0,
"lat":38.95,
"lon":-77.5,
"status":"(V) Under construction, more than 50 percent complete",
"queue_date":"",
"estimated_cod":"2026-04-01",
"state":"VA"
},
{
"id":"EIA-65139-VCP19",
"name":"Woodstock Solar One",
"iso":"ISO-NE",
"type":"generation",
"fuel_type":"solar",
"capacity_mw":3.0,
"lat":41.9232,
"lon":-71.9614,
"status":"(V) Under construction, more than 50 percent complete",
"queue_date":"",
"estimated_cod":"2026-04-01",
"state":"CT"
},
{
"id":"EIA-65338-UNIS1",
"name":"Union Ridge Solar",
"iso":"PJM",
"type":"generation",
"fuel_type":"solar",
"capacity_mw":108.0,
"lat":39.9841,
"lon":-82.6413,
"status":"(V) Under construction, more than 50 percent complete",
"queue_date":"",
"estimated_cod":"2026-04-01",
"state":"OH"
},
{
"id":"EIA-65832-OLNYD",
"name":"Olney",
"iso":"ERCOT",
"type":"generation",
"fuel_type":"oil",
"capacity_mw":9.9,
"lat":33.3711,
"lon":-98.7205,
"status":"(TS) Construction complete, but not yet in commercial operation",
"queue_date":"",
"estimated_cod":"2026-04-01",
"state":"TX"
},
{
"id":"EIA-65883-1",
"name":"North Orange",
"iso":"FPL",
"type":"generation",
"fuel_type":"solar",
"capacity_mw":74.5,
"lat":27.5142,
"lon":-80.5707,
"status":"(V) Under construction, more than 50 percent complete",
"queue_date":"",
"estimated_cod":"2026-04-01",
"state":"FL"
},
{
"id":"EIA-65889-BESS",
"name":"Nighthawk Energy Storage, LLC",
"iso":"CAISO",
"type":"generation",
"fuel_type":"battery",
"capacity_mw":300.0,
"lat":32.934,
"lon":-117.038,
"status":"(V) Under construction, more than 50 percent complete",
"queue_date":"",
"estimated_cod":"2026-04-01",
"state":"CA"
},
{
"id":"EIA-66002-MVSBA",
"name":"AES Mountain View Solar",
"iso":"HECO",
"type":"generation",
"fuel_type":"battery",
"capacity_mw":7.0,
"lat":21.458,
"lon":-158.1767,
"status":"(V) Under construction, more than 50 percent complete",
"queue_date":"",
"estimated_cod":"2026-04-01",
"state":"HI"
},
{
"id":"EIA-66002-MVSPV",
"name":"AES Mountain View Solar",
"iso":"HECO",
"type":"generation",
"fuel_type":"solar",
"capacity_mw":7.0,
"lat":21.458,
"lon":-158.1767,
"status":"(V) Under construction, more than 50 percent complete",
"queue_date":"",
"estimated_cod":"2026-04-01",
"state":"HI"
},
{
"id":"EIA-66313-MOCO",
"name":"Moon Corner Solar",
"iso":"PJM",
"type":"generation",
"fuel_type":"solar",
"capacity_mw":60.0,
"lat":37.89,
"lon":-76.54,
"status":"(U) Under construction, less than or equal to 50 percent complete",
"queue_date":"",
"estimated_cod":"2026-04-01",
"state":"VA"
},
{
"id":"EIA-66697-BS1",
"name":"Branch Solar Project",
"iso":"MISO",
"type":"generation",
"fuel_type":"solar",
"capacity_mw":200.0,
"lat":41.8835,
"lon":-85.0733,
"status":"(V) Under construction, more than 50 percent complete",
"queue_date":"",
"estimated_cod":"2026-04-01",
"state":"MI"
},
{
"id":"EIA-66785-ELVAK",
"name":"Elevate Arthur Kill",
"iso":"NYISO",
"type":"generation",
"fuel_type":"battery",
"capacity_mw":15.1,
"lat":40.5901,
"lon":-74.1984,
"status":"(V) Under construction, more than 50 percent complete",
"queue_date":"",
"estimated_cod":"2026-04-01",
"state":"NY"
},
{
"id":"EIA-66871-SOLAR",
"name":"GulfStar Power, LLC",
"iso":"ERCOT",
"type":"generation",
"fuel_type":"solar",
"capacity_mw":451.6,
"lat":29.1913,
"lon":-95.9675,
"status":"(TS) Construction complete, but not yet in commercial operation",
"queue_date":"",
"estimated_cod":"2026-04-01",
"state":"TX"
},
{
"id":"EIA-66905-SOLAR",
"name":"Ables Springs Solar & Storage",
"iso":"ERCOT",
"type":"generation",
"fuel_type":"solar",
"capacity_mw":151.0,
"lat":32.8196,
"lon":-96.1848,
"status":"(TS) Construction complete, but not yet in commercial operation",
"queue_date":"",
"estimated_cod":"2026-04-01",
"state":"TX"
},
{
"id":"EIA-66918-GT11",
"name":"Trumbull Energy Center",
"iso":"PJM",
"type":"generation",
"fuel_type":"gas",
"capacity_mw":308.7,
"lat":41.1476,
"lon":-80.8525,
"status":"(V) Under construction, more than 50 percent complete",
"queue_date":"",
"estimated_cod":"2026-04-01",
"state":"OH"
},
{
"id":"EIA-66918-GT12",
"name":"Trumbull Energy Center",
"iso":"PJM",
"type":"generation",
"fuel_type":"gas",
"capacity_mw":308.7,
"lat":41.1476,
"lon":-80.8525,
"status":"(V) Under construction, more than 50 percent complete",
"queue_date":"",
"estimated_cod":"2026-04-01",
"state":"OH"
},
{
"id":"EIA-66918-STG",
"name":"Trumbull Energy Center",
"iso":"PJM",
"type":"generation",
"fuel_type":"gas",
"capacity_mw":360.0,
"lat":41.1476,
"lon":-80.8525,
"status":"(V) Under construction, more than 50 percent complete",
"queue_date":"",
"estimated_cod":"2026-04-01",
"state":"OH"
},
{
"id":"EIA-67105-CPP01",
"name":"Pastoria Solar",
"iso":"CAISO",
"type":"generation",
"fuel_type":"solar",
"capacity_mw":105.2,
"lat":34.9552,
"lon":-118.8642,
"status":"(V) Under construction, more than 50 percent complete",
"queue_date":"",
"estimated_cod":"2026-04-01",
"state":"CA"
},
{
"id":"EIA-67123-MISII",
"name":"Fagus Solar Park",
"iso":"ERCOT",
"type":"generation",
"fuel_type":"solar",
"capacity_mw":331.6,
"lat":34.351,
"lon":-100.0493,
"status":"(V) Under construction, more than 50 percent complete",
"queue_date":"",
"estimated_cod":"2026-04-01",
"state":"TX"
},
{
"id":"EIA-67184-BHV1",
"name":"Beehive Energy Storage",
"iso":"AZPS",
"type":"generation",
"fuel_type":"battery",
"capacity_mw":250.0,
"lat":33.8004,
"lon":-112.2725,
"status":"(TS) Construction complete, but not yet in commercial operation",
"queue_date":"",
"estimated_cod":"2026-04-01",
"state":"AZ"
},
{
"id":"EIA-67230-CS",
"name":"Carne Energy Storage, LLC",
"iso":"EPE",
"type":"generation",
"fuel_type":"battery",
"capacity_mw":130.0,
"lat":32.3148,
"lon":-107.678,
"status":"(TS) Construction complete, but not yet in commercial operation",
"queue_date":"",
"estimated_cod":"2026-04-01",
"state":"NM"
},
{
"id":"EIA-67234-LARAB",
"name":"Lara 2 Hybrid",
"iso":"CAISO",
"type":"generation",
"fuel_type":"battery",
"capacity_mw":0.9,
"lat":36.9894,
"lon":-120.8781,
"status":"(TS) Construction complete, but not yet in commercial operation",
"queue_date":"",
"estimated_cod":"2026-04-01",
"state":"CA"
},
{
"id":"EIA-67234-LARAS",
"name":"Lara 2 Hybrid",
"iso":"CAISO",
"type":"generation",
"fuel_type":"solar",
"capacity_mw":0.7,
"lat":36.9894,
"lon":-120.8781,
"status":"(TS) Construction complete, but not yet in commercial operation",
"queue_date":"",
"estimated_cod":"2026-04-01",
"state":"CA"
},
{
"id":"EIA-67260-SPD",
"name":"Solar PV Development NM 18 II LLC",
"iso":"EPE",
"type":"generation",
"fuel_type":"solar",
"capacity_mw":130.0,
"lat":32.3148,
"lon":-107.678,
"status":"(TS) Construction complete, but not yet in commercial operation",
"queue_date":"",
"estimated_cod":"2026-04-01",
"state":"NM"
},
{
"id":"EIA-67279-6572",
"name":"Borrego - Highland Ave",
"iso":"ISO-NE",
"type":"generation",
"fuel_type":"solar",
"capacity_mw":5.0,
"lat":41.6615,
"lon":-71.06,
"status":"(U) Under construction, less than or equal to 50 percent complete",
"queue_date":"",
"estimated_cod":"2026-04-01",
"state":"MA"
},
{
"id":"EIA-67279-6572B",
"name":"Borrego - Highland Ave",
"iso":"ISO-NE",
"type":"generation",
"fuel_type":"battery",
"capacity_mw":5.0,
"lat":41.6615,
"lon":-71.06,
"status":"(U) Under construction, less than or equal to 50 percent complete",
"queue_date":"",
"estimated_cod":"2026-04-01",
"state":"MA"
},
{
"id":"EIA-67413-GEER3",
"name":"Geer Road Solar 3",
"iso":"NYISO",
"type":"generation",
"fuel_type":"solar",
"capacity_mw":5.0,
"lat":43.354,
"lon":-73.571,
"status":"(V) Under construction, more than 50 percent complete",
"queue_date":"",
"estimated_cod":"2026-04-01",
"state":"NY"
},
{
"id":"EIA-67677-HWS",
"name":"Heartwood Solar",
"iso":"MISO",
"type":"generation",
"fuel_type":"solar",
"capacity_mw":150.0,
"lat":41.9341,
"lon":-84.7343,
"status":"(V) Under construction, more than 50 percent complete",
"queue_date":"",
"estimated_cod":"2026-04-01",
"state":"MI"
},
{
"id":"EIA-67770-30200",
"name":"Pittsburg RV Solar",
"iso":"CAISO",
"type":"generation",
"fuel_type":"solar",
"capacity_mw":2.8,
"lat":38.0115,
"lon":-121.8453,
"status":"(TS) Construction complete, but not yet in commercial operation",
"queue_date":"",
"estimated_cod":"2026-04-01",
"state":"CA"
},
{
"id":"EIA-67885-ND005",
"name":"Nelson Clean Energy, LLC",
"iso":"NYISO",
"type":"generation",
"fuel_type":"battery",
"capacity_mw":3.0,
"lat":40.543,
"lon":-74.1463,
"status":"(V) Under construction, more than 50 percent complete",
"queue_date":"",
"estimated_cod":"2026-04-01",
"state":"NY"
},
{
"id":"EIA-67885-ND006",
"name":"Nelson Clean Energy, LLC",
"iso":"NYISO",
"type":"generation",
"fuel_type":"battery",
"capacity_mw":5.0,
"lat":40.543,
"lon":-74.1463,
"status":"(V) Under construction, more than 50 percent complete",
"queue_date":"",
"estimated_cod":"2026-04-01",
"state":"NY"
},
{
"id":"EIA-67991-CKML",
"name":"Cooks Mill PV I",
"iso":"MISO",
"type":"generation",
"fuel_type":"solar",
"capacity_mw":99.0,
"lat":39.5208,
"lon":-88.4201,
"status":"(V) Under construction, more than 50 percent complete",
"queue_date":"",
"estimated_cod":"2026-04-01",
"state":"IL"
},
{
"id":"EIA-67992-CHVLY",
"name":"Cherry Valley PV I",
"iso":"MISO",
"type":"generation",
"fuel_type":"solar",
"capacity_mw":135.0,
"lat":35.389,
"lon":-90.7546,
"status":"(V) Under construction, more than 50 percent complete",
"queue_date":"",
"estimated_cod":"2026-04-01",
"state":"AR"
},
{
"id":"EIA-67993-CRDCK",
"name":"Crooked Creek PV I",
"iso":"MISO",
"type":"generation",
"fuel_type":"solar",
"capacity_mw":99.0,
"lat":38.6452,
"lon":-88.9998,
"status":"(U) Under construction, less than or equal to 50 percent complete",
"queue_date":"",
"estimated_cod":"2026-04-01",
"state":"IL"
},
{
"id":"EIA-68018-MRCDB",
"name":"Merced BESS",
"iso":"CAISO",
"type":"generation",
"fuel_type":"battery",
"capacity_mw":3.0,
"lat":36.9894,
"lon":-120.8775,
"status":"(TS) Construction complete, but not yet in commercial operation",
"queue_date":"",
"estimated_cod":"2026-04-01",
"state":"CA"
},
{
"id":"EIA-68055-PPB",
"name":"Prospect Power BESS",
"iso":"PJM",
"type":"generation",
"fuel_type":"battery",
"capacity_mw":150.0,
"lat":38.6161,
"lon":-78.6864,
"status":"(V) Under construction, more than 50 percent complete",
"queue_date":"",
"estimated_cod":"2026-04-01",
"state":"VA"
},
{
"id":"EIA-68074-CERUL",
"name":"Cerulean Solar",
"iso":"PJM",
"type":"generation",
"fuel_type":"solar",
"capacity_mw":62.0,
"lat":37.8672,
"lon":-76.5899,
"status":"(V) Under construction, more than 50 percent complete",
"queue_date":"",
"estimated_cod":"2026-04-01",
"state":"VA"
},
{
"id":"EIA-68130-CH211",
"name":"Des Plaines 11-SLCHI211",
"iso":"PJM",
"type":"generation",
"fuel_type":"solar",
"capacity_mw":1.6,
"lat":42.015,
"lon":-87.915,
"status":"(TS) Construction complete, but not yet in commercial operation",
"queue_date":"",
"estimated_cod":"2026-04-01",
"state":"IL"
},
{
"id":"EIA-68132-CH701",
"name":"Elk Grove 1-SLCHI701",
"iso":"PJM",
"type":"generation",
"fuel_type":"solar",
"capacity_mw":1.7,
"lat":42.0104,
"lon":-87.958,
"status":"(V) Under construction, more than 50 percent complete",
"queue_date":"",
"estimated_cod":"2026-04-01",
"state":"IL"
},
{
"id":"EIA-68139-CH102",
"name":"McCook 2-SLCHI102",
"iso":"PJM",
"type":"generation",
"fuel_type":"solar",
"capacity_mw":2.0,
"lat":41.8031,
"lon":-87.8194,
"status":"(V) Under construction, more than 50 percent complete",
"queue_date":"",
"estimated_cod":"2026-04-01",
"state":"IL"
},
{
"id":"EIA-68142-CH303",
"name":"Northlake 3-SLCHI303",
"iso":"PJM",
"type":"generation",
"fuel_type":"solar",
"capacity_mw":1.6,
"lat":41.9185,
"lon":-87.9093,
"status":"(U) Under construction, less than or equal to 50 percent complete",
"queue_date":"",
"estimated_cod":"2026-04-01",
"state":"IL"
},
{
"id":"EIA-68144-CH305",
"name":"Northlake 5-SLCHI305",
"iso":"PJM",
"type":"generation",
"fuel_type":"solar",
"capacity_mw":2.5,
"lat":41.929,
"lon":-87.9172,
"status":"(V) Under construction, more than 50 percent complete",
"queue_date":"",
"estimated_cod":"2026-04-01",
"state":"IL"
},
{
"id":"EIA-68208-LRZBR",
"name":"City of Little Rock Solar Array",
"iso":"MISO",
"type":"generation",
"fuel_type":"solar",
"capacity_mw":4.9,
"lat":34.6976,
"lon":-92.2144,
"status":"(U) Under construction, less than or equal to 50 percent complete",
"queue_date":"",
"estimated_cod":"2026-04-01",
"state":"AR"
},
{
"id":"EIA-68210-BESS",
"name":"Sandia Energy Center",
"iso":"PNM",
"type":"generation",
"fuel_type":"battery",
"capacity_mw":60.0,
"lat":35.0571,
"lon":-106.5277,
"status":"(TS) Construction complete, but not yet in commercial operation",
"queue_date":"",
"estimated_cod":"2026-04-01",
"state":"NM"
},
{
"id":"EIA-68235-C34BB",
"name":"Romeoville 34 - SLCHI234 - BSCHI234",
"iso":"PJM",
"type":"generation",
"fuel_type":"battery",
"capacity_mw":0.5,
"lat":41.597,
"lon":-88.11,
"status":"(U) Under construction, less than or equal to 50 percent complete",
"queue_date":"",
"estimated_cod":"2026-04-01",
"state":"IL"
},
{
"id":"EIA-68248-GRAY",
"name":"SR Gray",
"iso":"TVA",
"type":"generation",
"fuel_type":"solar",
"capacity_mw":6.0,
"lat":36.4395,
"lon":-82.4735,
"status":"(U) Under construction, less than or equal to 50 percent complete",
"queue_date":"",
"estimated_cod":"2026-04-01",
"state":"TN"
},
{
"id":"EIA-68277-1",
"name":"Brookings Solar",
"iso":"SPP",
"type":"generation",
"fuel_type":"solar",
"capacity_mw":4.9,
"lat":44.3406,
"lon":-96.7294,
"status":"(U) Under construction, less than or equal to 50 percent complete",
"queue_date":"",
"estimated_cod":"2026-04-01",
"state":"SD"
},
{
"id":"EIA-68319-NIM",
"name":"Nimbus Wind Farm",
"iso":"MISO",
"type":"generation",
"fuel_type":"wind",
"capacity_mw":183.0,
"lat":36.2712,
"lon":-93.4068,
"status":"(V) Under construction, more than 50 percent complete",
"queue_date":"",
"estimated_cod":"2026-04-01",
"state":"AR"
},
{
"id":"EIA-68439-17184",
"name":"NorCal FPV 1",
"iso":"CAISO",
"type":"generation",
"fuel_type":"solar",
"capacity_mw":10.0,
"lat":37.6778,
"lon":-121.8275,
"status":"(V) Under construction, more than 50 percent complete",
"queue_date":"",
"estimated_cod":"2026-04-01",
"state":"CA"
},
{
"id":"EIA-68465-22324",
"name":"Imperator Solar",
"iso":"CAISO",
"type":"generation",
"fuel_type":"solar",
"capacity_mw":2.0,
"lat":35.4932,
"lon":-119.1659,
"status":"(TS) Construction complete, but not yet in commercial operation",
"queue_date":"",
"estimated_cod":"2026-04-01",
"state":"CA"
},
{
"id":"EIA-68477-1",
"name":"Pediment BESS I",
"iso":"SRP",
"type":"generation",
"fuel_type":"battery",
"capacity_mw":250.0,
"lat":33.3557,
"lon":-111.6021,
"status":"(TS) Construction complete, but not yet in commercial operation",
"queue_date":"",
"estimated_cod":"2026-04-01",
"state":"AZ"
},
{
"id":"EIA-68518-MRC2B",
"name":"Merced 2 BESS",
"iso":"CAISO",
"type":"generation",
"fuel_type":"battery",
"capacity_mw":2.0,
"lat":37.0009,
"lon":-120.6648,
"status":"(TS) Construction complete, but not yet in commercial operation",
"queue_date":"",
"estimated_cod":"2026-04-01",
"state":"CA"
},
{
"id":"EIA-68581-MTB",
"name":"Mendoza Trail BESS",
"iso":"ERCOT",
"type":"generation",
"fuel_type":"battery",
"capacity_mw":200.0,
"lat":31.1937,
"lon":-102.3159,
"status":"(U) Under construction, less than or equal to 50 percent complete",
"queue_date":"",
"estimated_cod":"2026-04-01",
"state":"TX"
},
{
"id":"EIA-68582-PPB",
"name":"Pintail BESS",
"iso":"ERCOT",
"type":"generation",
"fuel_type":"battery",
"capacity_mw":200.0,
"lat":28.0427,
"lon":-97.4401,
"status":"(U) Under construction, less than or equal to 50 percent complete",
"queue_date":"",
"estimated_cod":"2026-04-01",
"state":"TX"
},
{
"id":"EIA-68600-7236B",
"name":"Las Virgenes MWD - Composting Plant",
"iso":"CAISO",
"type":"generation",
"fuel_type":"battery",
"capacity_mw":0.5,
"lat":34.1265,
"lon":-118.6981,
"status":"(V) Under construction, more than 50 percent complete",
"queue_date":"",
"estimated_cod":"2026-04-01",
"state":"CA"
},
{
"id":"EIA-68600-7236G",
"name":"Las Virgenes MWD - Composting Plant",
"iso":"CAISO",
"type":"generation",
"fuel_type":"solar",
"capacity_mw":0.9,
"lat":34.1265,
"lon":-118.6981,
"status":"(V) Under construction, more than 50 percent complete",
"queue_date":"",
"estimated_cod":"2026-04-01",
"state":"CA"
},
{
"id":"EIA-68753-FLYGS",
"name":"Flying Goose",
"iso":"CAISO",
"type":"generation",
"fuel_type":"solar",
"capacity_mw":3.0,
"lat":35.6,
"lon":-119.5824,
"status":"(V) Under construction, more than 50 percent complete",
"queue_date":"",
"estimated_cod":"2026-04-01",
"state":"CA"
},
{
"id":"EIA-68778-20421",
"name":"IL Chicago 2635 S Western Ave. (West)",
"iso":"PJM",
"type":"generation",
"fuel_type":"solar",
"capacity_mw":1.8,
"lat":41.8441,
"lon":-87.6833,
"status":"(TS) Construction complete, but not yet in commercial operation",
"queue_date":"",
"estimated_cod":"2026-04-01",
"state":"IL"
},
{
"id":"EIA-68783-NY009",
"name":"NY CDG 009",
"iso":"NYISO",
"type":"generation",
"fuel_type":"solar",
"capacity_mw":1.0,
"lat":40.8085,
"lon":-72.9577,
"status":"(V) Under construction, more than 50 percent complete",
"queue_date":"",
"estimated_cod":"2026-04-01",
"state":"NY"
},
{
"id":"EIA-68787-23889",
"name":"NorCal FPV 1 (Pond 2)",
"iso":"CAISO",
"type":"generation",
"fuel_type":"solar",
"capacity_mw":1.8,
"lat":37.6779,
"lon":-121.8276,
"status":"(V) Under construction, more than 50 percent complete",
"queue_date":"",
"estimated_cod":"2026-04-01",
"state":"CA"
},
{
"id":"EIA-68789-LA104",
"name":"South Bay Dis Ctr 12 - SLLAX104",
"iso":"CAISO",
"type":"generation",
"fuel_type":"solar",
"capacity_mw":1.2,
"lat":33.8429,
"lon":-118.2245,
"status":"(U) Under construction, less than or equal to 50 percent complete",
"queue_date":"",
"estimated_cod":"2026-04-01",
"state":"CA"
},
{
"id":"EIA-68790-LA512",
"name":"Dominguez - SLLAX512",
"iso":"CAISO",
"type":"generation",
"fuel_type":"solar",
"capacity_mw":1.3,
"lat":33.8404,
"lon":-118.2287,
"status":"(TS) Construction complete, but not yet in commercial operation",
"queue_date":"",
"estimated_cod":"2026-04-01",
"state":"CA"
},
{
"id":"EIA-68793-LA710",
"name":"Bandini - SLLAX710",
"iso":"CAISO",
"type":"generation",
"fuel_type":"solar",
"capacity_mw":1.3,
"lat":33.9836,
"lon":-118.1348,
"status":"(U) Under construction, less than or equal to 50 percent complete",
"queue_date":"",
"estimated_cod":"2026-04-01",
"state":"CA"
},
{
"id":"EIA-68818-1",
"name":"Sand Pine",
"iso":"FPL",
"type":"generation",
"fuel_type":"solar",
"capacity_mw":74.5,
"lat":30.4476,
"lon":-85.2637,
"status":"(V) Under construction, more than 50 percent complete",
"queue_date":"",
"estimated_cod":"2026-04-01",
"state":"FL"
},
{
"id":"EIA-68819-1",
"name":"Sea Grape",
"iso":"FPL",
"type":"generation",
"fuel_type":"solar",
"capacity_mw":74.5,
"lat":27.4524,
"lon":-80.564,
"status":"(V) Under construction, more than 50 percent complete",
"queue_date":"",
"estimated_cod":"2026-04-01",
"state":"FL"
},
{
"id":"EIA-68821-1",
"name":"Clover FL",
"iso":"FPL",
"type":"generation",
"fuel_type":"solar",
"capacity_mw":74.5,
"lat":27.472,
"lon":-80.519,
"status":"(V) Under construction, more than 50 percent complete",
"queue_date":"",
"estimated_cod":"2026-04-01",
"state":"FL"
},
{
"id":"EIA-69027-SSBA",
"name":"Stoneridge Solar, LLC",
"iso":"ERCOT",
"type":"generation",
"fuel_type":"battery",
"capacity_mw":100.0,
"lat":30.5694,
"lon":-97.1104,
"status":"(TS) Construction complete, but not yet in commercial operation",
"queue_date":"",
"estimated_cod":"2026-04-01",
"state":"TX"
},
{
"id":"EIA-69121-DERBA",
"name":"Deer Creek Hybrid",
"iso":"CAISO",
"type":"generation",
"fuel_type":"battery",
"capacity_mw":51.4,
"lat":35.965,
"lon":-119.07,
"status":"(U) Under construction, less than or equal to 50 percent complete",
"queue_date":"",
"estimated_cod":"2026-04-01",
"state":"CA"
},
{
"id":"EIA-69121-DERPV",
"name":"Deer Creek Hybrid",
"iso":"CAISO",
"type":"generation",
"fuel_type":"solar",
"capacity_mw":51.4,
"lat":35.965,
"lon":-119.07,
"status":"(U) Under construction, less than or equal to 50 percent complete",
"queue_date":"",
"estimated_cod":"2026-04-01",
"state":"CA"
},
{
"id":"EIA-69151-ARY_B",
"name":"Arroyo Storage",
"iso":"ERCOT",
"type":"generation",
"fuel_type":"battery",
"capacity_mw":180.0,
"lat":26.2643,
"lon":-97.6116,
"status":"(TS) Construction complete, but not yet in commercial operation",
"queue_date":"",
"estimated_cod":"2026-04-01",
"state":"TX"
},
{
"id":"EIA-69157-PALOM",
"name":"SV CSG Paloma Solar",
"iso":"PJM",
"type":"generation",
"fuel_type":"solar",
"capacity_mw":4.4,
"lat":41.5816,
"lon":-89.4454,
"status":"(V) Under construction, more than 50 percent complete",
"queue_date":"",
"estimated_cod":"2026-04-01",
"state":"IL"
},
{
"id":"EIA-69208-11036",
"name":"Route 14-1",
"iso":"NYISO",
"type":"generation",
"fuel_type":"solar",
"capacity_mw":5.0,
"lat":43.0419,
"lon":-76.985,
"status":"(V) Under construction, more than 50 percent complete",
"queue_date":"",
"estimated_cod":"2026-04-01",
"state":"NY"
},
{
"id":"EIA-69209-11037",
"name":"Route 14-2",
"iso":"NYISO",
"type":"generation",
"fuel_type":"solar",
"capacity_mw":5.0,
"lat":43.0428,
"lon":-76.9809,
"status":"(V) Under construction, more than 50 percent complete",
"queue_date":"",
"estimated_cod":"2026-04-01",
"state":"NY"
},
{
"id":"EIA-69237-ATL5",
"name":"ATLAS Solar V, LLC",
"iso":"CAISO",
"type":"generation",
"fuel_type":"solar",
"capacity_mw":200.0,
"lat":33.5732,
"lon":-113.5773,
"status":"(TS) Construction complete, but not yet in commercial operation",
"queue_date":"",
"estimated_cod":"2026-04-01",
"state":"AZ"
},
{
"id":"EIA-69249-NTLPK",
"name":"National Park Solar",
"iso":"PJM",
"type":"generation",
"fuel_type":"solar",
"capacity_mw":6.0,
"lat":39.8606,
"lon":-75.1799,
"status":"(V) Under construction, more than 50 percent complete",
"queue_date":"",
"estimated_cod":"2026-04-01",
"state":"NJ"
},
{
"id":"EIA-69252-HABA1",
"name":"Harlingen #1 BESS 1",
"iso":"ERCOT",
"type":"generation",
"fuel_type":"battery",
"capacity_mw":10.0,
"lat":26.2061,
"lon":-97.7084,
"status":"(V) Under construction, more than 50 percent complete",
"queue_date":"",
"estimated_cod":"2026-04-01",
"state":"TX"
},
{
"id":"EIA-69253-NEBA1",
"name":"North Edinburg BESS 1",
"iso":"ERCOT",
"type":"generation",
"fuel_type":"battery",
"capacity_mw":10.0,
"lat":26.3472,
"lon":-98.1884,
"status":"(V) Under construction, more than 50 percent complete",
"queue_date":"",
"estimated_cod":"2026-04-01",
"state":"TX"
},
{
"id":"EIA-69254-WIL2B",
"name":"Wilmot Energy Center II",
"iso":"TEPC",
"type":"generation",
"fuel_type":"battery",
"capacity_mw":100.0,
"lat":31.5925,
"lon":-110.5014,
"status":"(V) Under construction, more than 50 percent complete",
"queue_date":"",
"estimated_cod":"2026-04-01",
"state":"AZ"
},
{
"id":"EIA-69254-WIL2S",
"name":"Wilmot Energy Center II",
"iso":"TEPC",
"type":"generation",
"fuel_type":"solar",
"capacity_mw":100.0,
"lat":31.5925,
"lon":-110.5014,
"status":"(V) Under construction, more than 50 percent complete",
"queue_date":"",
"estimated_cod":"2026-04-01",
"state":"AZ"
},
{
"id":"EIA-69256-PPAPV",
"name":"Papago PV",
"iso":"AZPS",
"type":"generation",
"fuel_type":"solar",
"capacity_mw":150.0,
"lat":33.485,
"lon":-113.042,
"status":"(TS) Construction complete, but not yet in commercial operation",
"queue_date":"",
"estimated_cod":"2026-04-01",
"state":"AZ"
},
{
"id":"EIA-69258-CHCB",
"name":"Cunningham Solar I & BESS",
"iso":"SPP",
"type":"generation",
"fuel_type":"battery",
"capacity_mw":36.0,
"lat":32.7846,
"lon":-103.3374,
"status":"(U) Under construction, less than or equal to 50 percent complete",
"queue_date":"",
"estimated_cod":"2026-04-01",
"state":"NM"
},
{
"id":"EIA-69258-CHCS1",
"name":"Cunningham Solar I & BESS",
"iso":"SPP",
"type":"generation",
"fuel_type":"solar",
"capacity_mw":72.0,
"lat":32.7846,
"lon":-103.3374,
"status":"(U) Under construction, less than or equal to 50 percent complete",
"queue_date":"",
"estimated_cod":"2026-04-01",
"state":"NM"
},
{
"id":"EIA-69259-CGWTR",
"name":"Changewater 1",
"iso":"PJM",
"type":"generation",
"fuel_type":"solar",
"capacity_mw":11.0,
"lat":40.7364,
"lon":-74.9506,
"status":"(V) Under construction, more than 50 percent complete",
"queue_date":"",
"estimated_cod":"2026-04-01",
"state":"NJ"
},
{
"id":"EIA-69267-CDRV1",
"name":"Cedarvale Gas",
"iso":"ERCOT",
"type":"generation",
"fuel_type":"gas",
"capacity_mw":2.5,
"lat":31.5154,
"lon":-103.4507,
"status":"(TS) Construction complete, but not yet in commercial operation",
"queue_date":"",
"estimated_cod":"2026-04-01",
"state":"TX"
},
{
"id":"EIA-69267-CDRV2",
"name":"Cedarvale Gas",
"iso":"ERCOT",
"type":"generation",
"fuel_type":"gas",
"capacity_mw":2.5,
"lat":31.5154,
"lon":-103.4507,
"status":"(TS) Construction complete, but not yet in commercial operation",
"queue_date":"",
"estimated_cod":"2026-04-01",
"state":"TX"
},
{
"id":"EIA-69267-CDRV3",
"name":"Cedarvale Gas",
"iso":"ERCOT",
"type":"generation",
"fuel_type":"gas",
"capacity_mw":2.5,
"lat":31.5154,
"lon":-103.4507,
"status":"(TS) Construction complete, but not yet in commercial operation",
"queue_date":"",
"estimated_cod":"2026-04-01",
"state":"TX"
},
{
"id":"EIA-69267-CDRV4",
"name":"Cedarvale Gas",
"iso":"ERCOT",
"type":"generation",
"fuel_type":"gas",
"capacity_mw":2.5,
"lat":31.5154,
"lon":-103.4507,
"status":"(TS) Construction complete, but not yet in commercial operation",
"queue_date":"",
"estimated_cod":"2026-04-01",
"state":"TX"
},
{
"id":"EIA-69324-BUDA",
"name":"Buda BESS",
"iso":"ERCOT",
"type":"generation",
"fuel_type":"battery",
"capacity_mw":9.9,
"lat":30.0756,
"lon":-97.851,
"status":"(U) Under construction, less than or equal to 50 percent complete",
"queue_date":"",
"estimated_cod":"2026-04-01",
"state":"TX"
},
{
"id":"EIA-69361-FPBAT",
"name":"DGS Five Points",
"iso":"ERCOT",
"type":"generation",
"fuel_type":"battery",
"capacity_mw":9.9,
"lat":32.4649,
"lon":-99.8126,
"status":"(TS) Construction complete, but not yet in commercial operation",
"queue_date":"",
"estimated_cod":"2026-04-01",
"state":"TX"
},
{
"id":"EIA-69362-PSBAT",
"name":"Plaza Street",
"iso":"ERCOT",
"type":"generation",
"fuel_type":"battery",
"capacity_mw":9.9,
"lat":32.4576,
"lon":-99.7893,
"status":"(TS) Construction complete, but not yet in commercial operation",
"queue_date":"",
"estimated_cod":"2026-04-01",
"state":"TX"
},
{
"id":"EIA-69394-REDF1",
"name":"Redfield Solar",
"iso":"MISO",
"type":"generation",
"fuel_type":"solar",
"capacity_mw":100.0,
"lat":34.2711,
"lon":-92.2322,
"status":"(TS) Construction complete, but not yet in commercial operation",
"queue_date":"",
"estimated_cod":"2026-04-01",
"state":"AR"
},
{
"id":"EIA-69435-PLXS",
"name":"Plant X Solar",
"iso":"SPP",
"type":"generation",
"fuel_type":"solar",
"capacity_mw":150.0,
"lat":34.1656,
"lon":-102.4053,
"status":"(V) Under construction, more than 50 percent complete",
"queue_date":"",
"estimated_cod":"2026-04-01",
"state":"TX"
},
{
"id":"EIA-69469-JES1",
"name":"Justice Energy Storage",
"iso":"AZPS",
"type":"generation",
"fuel_type":"battery",
"capacity_mw":150.0,
"lat":33.408,
"lon":-112.4956,
"status":"(V) Under construction, more than 50 percent complete",
"queue_date":"",
"estimated_cod":"2026-04-01",
"state":"AZ"
},
{
"id":"EIA-69475-SPTRL",
"name":"Split Rail Solar Energy LLC",
"iso":"MISO",
"type":"generation",
"fuel_type":"solar",
"capacity_mw":300.0,
"lat":38.9011,
"lon":-91.2086,
"status":"(V) Under construction, more than 50 percent complete",
"queue_date":"",
"estimated_cod":"2026-04-01",
"state":"MO"
},
{
"id":"EIA-69476-RNGDE",
"name":"Renegade Solar Energy LLC",
"iso":"MISO",
"type":"generation",
"fuel_type":"solar",
"capacity_mw":100.0,
"lat":45.9973,
"lon":-87.2262,
"status":"(U) Under construction, less than or equal to 50 percent complete",
"queue_date":"",
"estimated_cod":"2026-04-01",
"state":"MI"
},
{
"id":"EIA-69504-20258",
"name":"Strawberry Creek Solar WI, LLC",
"iso":"MISO",
"type":"generation",
"fuel_type":"solar",
"capacity_mw":6.0,
"lat":42.5863,
"lon":-88.0143,
"status":"(TS) Construction complete, but not yet in commercial operation",
"queue_date":"",
"estimated_cod":"2026-04-01",
"state":"WI"
},
{
"id":"EIA-69521-ARCH2",
"name":"Archtop Solar",
"iso":"MISO",
"type":"generation",
"fuel_type":"solar",
"capacity_mw":53.3,
"lat":40.4693,
"lon":-88.4031,
"status":"(TS) Construction complete, but not yet in commercial operation",
"queue_date":"",
"estimated_cod":"2026-04-01",
"state":"IL"
},
{
"id":"EIA-69521-ARCH3",
"name":"Archtop Solar",
"iso":"MISO",
"type":"generation",
"fuel_type":"solar",
"capacity_mw":36.9,
"lat":40.4693,
"lon":-88.4031,
"status":"(TS) Construction complete, but not yet in commercial operation",
"queue_date":"",
"estimated_cod":"2026-04-01",
"state":"IL"
},
{
"id":"EIA-69521-ARCH4",
"name":"Archtop Solar",
"iso":"MISO",
"type":"generation",
"fuel_type":"solar",
"capacity_mw":24.6,
"lat":40.4693,
"lon":-88.4031,
"status":"(TS) Construction complete, but not yet in commercial operation",
"queue_date":"",
"estimated_cod":"2026-04-01",
"state":"IL"
},
{
"id":"EIA-69551-90915",
"name":"Holyoke MA BESS 1",
"iso":"ISO-NE",
"type":"generation",
"fuel_type":"battery",
"capacity_mw":5.0,
"lat":42.1677,
"lon":-72.649,
"status":"(U) Under construction, less than or equal to 50 percent complete",
"queue_date":"",
"estimated_cod":"2026-04-01",
"state":"MA"
},
{
"id":"EIA-69552-90916",
"name":"Danville VA BESS 2",
"iso":"PJM",
"type":"generation",
"fuel_type":"battery",
"capacity_mw":11.0,
"lat":36.6052,
"lon":-79.4358,
"status":"(U) Under construction, less than or equal to 50 percent complete",
"queue_date":"",
"estimated_cod":"2026-04-01",
"state":"VA"
},
{
"id":"EIA-69556-CLOCN",
"name":"Pluma - Clovis Concrete North",
"iso":"SPP",
"type":"generation",
"fuel_type":"solar",
"capacity_mw":3.4,
"lat":34.3639,
"lon":-103.1968,
"status":"(TS) Construction complete, but not yet in commercial operation",
"queue_date":"",
"estimated_cod":"2026-04-01",
"state":"NM"
},
{
"id":"EIA-69578-CFSPV",
"name":"Casey Fork Solar, LLC",
"iso":"MISO",
"type":"generation",
"fuel_type":"solar",
"capacity_mw":150.0,
"lat":38.452,
"lon":-88.876,
"status":"(TS) Construction complete, but not yet in commercial operation",
"queue_date":"",
"estimated_cod":"2026-04-01",
"state":"IL"
},
{
"id":"EIA-69591-20525",
"name":"20525 Nordhoff PV (North)",
"iso":"LDWP",
"type":"generation",
"fuel_type":"solar",
"capacity_mw":1.9,
"lat":34.2356,
"lon":-118.5811,
"status":"(TS) Construction complete, but not yet in commercial operation",
"queue_date":"",
"estimated_cod":"2026-04-01",
"state":"CA"
},
{
"id":"EIA-69592-PSKBS",
"name":"NL NY- Pulaski",
"iso":"NYISO",
"type":"generation",
"fuel_type":"battery",
"capacity_mw":2.5,
"lat":41.3343,
"lon":-74.404,
"status":"(TS) Construction complete, but not yet in commercial operation",
"queue_date":"",
"estimated_cod":"2026-04-01",
"state":"NY"
},
{
"id":"EIA-69592-PSKPV",
"name":"NL NY- Pulaski",
"iso":"NYISO",
"type":"generation",
"fuel_type":"solar",
"capacity_mw":2.5,
"lat":41.3343,
"lon":-74.404,
"status":"(TS) Construction complete, but not yet in commercial operation",
"queue_date":"",
"estimated_cod":"2026-04-01",
"state":"NY"
},
{
"id":"EIA-69602-90918",
"name":"Essex VT BESS 1",
"iso":"ISO-NE",
"type":"generation",
"fuel_type":"battery",
"capacity_mw":16.0,
"lat":44.4837,
"lon":-73.1072,
"status":"(U) Under construction, less than or equal to 50 percent complete",
"queue_date":"",
"estimated_cod":"2026-04-01",
"state":"VT"
},
{
"id":"EIA-69603-90917",
"name":"Ipswich MA BESS 1",
"iso":"ISO-NE",
"type":"generation",
"fuel_type":"battery",
"capacity_mw":5.0,
"lat":42.7164,
"lon":-70.842,
"status":"(U) Under construction, less than or equal to 50 percent complete",
"queue_date":"",
"estimated_cod":"2026-04-01",
"state":"MA"
},
{
"id":"EIA-2678-ENG13",
"name":"Plant No 1 Freeport",
"iso":"NYISO",
"type":"generation",
"fuel_type":"gas",
"capacity_mw":3.0,
"lat":40.6561,
"lon":-73.5922,
"status":"(U) Under construction, less than or equal to 50 percent complete",
"queue_date":"",
"estimated_cod":"2026-05-01",
"state":"NY"
},
{
"id":"EIA-63026-GEN1",
"name":"Yum Yum Solar LLC",
"iso":"TVA",
"type":"generation",
"fuel_type":"solar",
"capacity_mw":147.0,
"lat":35.2525,
"lon":-89.2514,
"status":"(V) Under construction, more than 50 percent complete",
"queue_date":"",
"estimated_cod":"2026-05-01",
"state":"TN"
},
{
"id":"EIA-63622-OES01",
"name":"OES Biogas Power",
"iso":"CAISO",
"type":"generation",
"fuel_type":"other",
"capacity_mw":1.3,
"lat":34.1733,
"lon":-117.3464,
"status":"(TS) Construction complete, but not yet in commercial operation",
"queue_date":"",
"estimated_cod":"2026-05-01",
"state":"CA"
},
{
"id":"EIA-63622-OES02",
"name":"OES Biogas Power",
"iso":"CAISO",
"type":"generation",
"fuel_type":"other",
"capacity_mw":1.3,
"lat":34.1733,
"lon":-117.3464,
"status":"(TS) Construction complete, but not yet in commercial operation",
"queue_date":"",
"estimated_cod":"2026-05-01",
"state":"CA"
},
{
"id":"EIA-63677-STURB",
"name":"Sturbridge Road Solar",
"iso":"ISO-NE",
"type":"generation",
"fuel_type":"solar",
"capacity_mw":5.0,
"lat":42.1746,
"lon":-72.0179,
"status":"(TS) Construction complete, but not yet in commercial operation",
"queue_date":"",
"estimated_cod":"2026-05-01",
"state":"MA"
},
{
"id":"EIA-65028-ROSES",
"name":"Roseland Solar Project, LLC",
"iso":"ERCOT",
"type":"generation",
"fuel_type":"solar",
"capacity_mw":500.0,
"lat":31.4612,
"lon":-96.8249,
"status":"(TS) Construction complete, but not yet in commercial operation",
"queue_date":"",
"estimated_cod":"2026-05-01",
"state":"TX"
},
{
"id":"EIA-65870-CASTR",
"name":"Castor",
"iso":"ERCOT",
"type":"generation",
"fuel_type":"battery",
"capacity_mw":200.0,
"lat":29.1503,
"lon":-95.6512,
"status":"(U) Under construction, less than or equal to 50 percent complete",
"queue_date":"",
"estimated_cod":"2026-05-01",
"state":"TX"
},
{
"id":"EIA-65876-DESNA",
"name":"Desna",
"iso":"ERCOT",
"type":"generation",
"fuel_type":"battery",
"capacity_mw":200.0,
"lat":29.0633,
"lon":-95.7354,
"status":"(U) Under construction, less than or equal to 50 percent complete",
"queue_date":"",
"estimated_cod":"2026-05-01",
"state":"TX"
},
{
"id":"EIA-66066-WAIBA",
"name":"AES Waiawa Phase 2 Solar",
"iso":"HECO",
"type":"generation",
"fuel_type":"battery",
"capacity_mw":30.0,
"lat":21.4303,
"lon":-157.9779,
"status":"(V) Under construction, more than 50 percent complete",
"queue_date":"",
"estimated_cod":"2026-05-01",
"state":"HI"
},
{
"id":"EIA-66066-WAIPV",
"name":"AES Waiawa Phase 2 Solar",
"iso":"HECO",
"type":"generation",
"fuel_type":"solar",
"capacity_mw":30.0,
"lat":21.4303,
"lon":-157.9779,
"status":"(V) Under construction, more than 50 percent complete",
"queue_date":"",
"estimated_cod":"2026-05-01",
"state":"HI"
},
{
"id":"EIA-66168-GEN01",
"name":"Cattlemen Solar Park",
"iso":"ERCOT",
"type":"generation",
"fuel_type":"solar",
"capacity_mw":240.0,
"lat":31.0457,
"lon":-96.8586,
"status":"(TS) Construction complete, but not yet in commercial operation",
"queue_date":"",
"estimated_cod":"2026-05-01",
"state":"TX"
},
{
"id":"EIA-66335-G11",
"name":"Timmerman Power Plant",
"iso":"ERCOT",
"type":"generation",
"fuel_type":"gas",
"capacity_mw":18.8,
"lat":29.875,
"lon":-97.807,
"status":"(TS) Construction complete, but not yet in commercial operation",
"queue_date":"",
"estimated_cod":"2026-05-01",
"state":"TX"
},
{
"id":"EIA-66335-G12",
"name":"Timmerman Power Plant",
"iso":"ERCOT",
"type":"generation",
"fuel_type":"gas",
"capacity_mw":18.8,
"lat":29.875,
"lon":-97.807,
"status":"(TS) Construction complete, but not yet in commercial operation",
"queue_date":"",
"estimated_cod":"2026-05-01",
"state":"TX"
},
{
"id":"EIA-66335-G13",
"name":"Timmerman Power Plant",
"iso":"ERCOT",
"type":"generation",
"fuel_type":"gas",
"capacity_mw":18.8,
"lat":29.875,
"lon":-97.807,
"status":"(TS) Construction complete, but not yet in commercial operation",
"queue_date":"",
"estimated_cod":"2026-05-01",
"state":"TX"
},
{
"id":"EIA-66335-G14",
"name":"Timmerman Power Plant",
"iso":"ERCOT",
"type":"generation",
"fuel_type":"gas",
"capacity_mw":18.8,
"lat":29.875,
"lon":-97.807,
"status":"(TS) Construction complete, but not yet in commercial operation",
"queue_date":"",
"estimated_cod":"2026-05-01",
"state":"TX"
},
{
"id":"EIA-66335-G15",
"name":"Timmerman Power Plant",
"iso":"ERCOT",
"type":"generation",
"fuel_type":"gas",
"capacity_mw":18.8,
"lat":29.875,
"lon":-97.807,
"status":"(TS) Construction complete, but not yet in commercial operation",
"queue_date":"",
"estimated_cod":"2026-05-01",
"state":"TX"
},
{
"id":"EIA-66335-G16",
"name":"Timmerman Power Plant",
"iso":"ERCOT",
"type":"generation",
"fuel_type":"gas",
"capacity_mw":18.8,
"lat":29.875,
"lon":-97.807,
"status":"(TS) Construction complete, but not yet in commercial operation",
"queue_date":"",
"estimated_cod":"2026-05-01",
"state":"TX"
},
{
"id":"EIA-66335-G17",
"name":"Timmerman Power Plant",
"iso":"ERCOT",
"type":"generation",
"fuel_type":"gas",
"capacity_mw":18.8,
"lat":29.875,
"lon":-97.807,
"status":"(TS) Construction complete, but not yet in commercial operation",
"queue_date":"",
"estimated_cod":"2026-05-01",
"state":"TX"
},
{
"id":"EIA-66335-G18",
"name":"Timmerman Power Plant",
"iso":"ERCOT",
"type":"generation",
"fuel_type":"gas",
"capacity_mw":18.8,
"lat":29.875,
"lon":-97.807,
"status":"(TS) Construction complete, but not yet in commercial operation",
"queue_date":"",
"estimated_cod":"2026-05-01",
"state":"TX"
},
{
"id":"EIA-66335-G19",
"name":"Timmerman Power Plant",
"iso":"ERCOT",
"type":"generation",
"fuel_type":"gas",
"capacity_mw":18.8,
"lat":29.875,
"lon":-97.807,
"status":"(TS) Construction complete, but not yet in commercial operation",
"queue_date":"",
"estimated_cod":"2026-05-01",
"state":"TX"
},
{
"id":"EIA-66335-G20",
"name":"Timmerman Power Plant",
"iso":"ERCOT",
"type":"generation",
"fuel_type":"gas",
"capacity_mw":18.8,
"lat":29.875,
"lon":-97.807,
"status":"(TS) Construction complete, but not yet in commercial operation",
"queue_date":"",
"estimated_cod":"2026-05-01",
"state":"TX"
},
{
"id":"EIA-66497-BHBA1",
"name":"Bensonhurst Energy Storage 1 LLC",
"iso":"ISO-NE",
"type":"generation",
"fuel_type":"battery",
"capacity_mw":5.0,
"lat":40.6368,
"lon":-73.9343,
"status":"(U) Under construction, less than or equal to 50 percent complete",
"queue_date":"",
"estimated_cod":"2026-05-01",
"state":"NY"
},
{
"id":"EIA-66516-19500",
"name":"TX Dallas 7750 Dynasty Drive",
"iso":"ERCOT",
"type":"generation",
"fuel_type":"solar",
"capacity_mw":2.3,
"lat":32.6523,
"lon":-96.7558,
"status":"(TS) Construction complete, but not yet in commercial operation",
"queue_date":"",
"estimated_cod":"2026-05-01",
"state":"TX"
},
{
"id":"EIA-66687-GRA1",
"name":"Graceland Solar, LLC",
"iso":"TVA",
"type":"generation",
"fuel_type":"solar",
"capacity_mw":150.0,
"lat":35.3094,
"lon":-89.8665,
"status":"(V) Under construction, more than 50 percent complete",
"queue_date":"",
"estimated_cod":"2026-05-01",
"state":"TN"
},
{
"id":"EIA-66768-694",
"name":"Hogs Bay",
"iso":"ISO-NE",
"type":"generation",
"fuel_type":"solar",
"capacity_mw":2.0,
"lat":44.5758,
"lon":-68.1997,
"status":"(V) Under construction, more than 50 percent complete",
"queue_date":"",
"estimated_cod":"2026-05-01",
"state":"ME"
},
{
"id":"EIA-67265-CTG-1",
"name":"CHP Plant",
"iso":"PJM",
"type":"generation",
"fuel_type":"gas",
"capacity_mw":5.7,
"lat":38.9203,
"lon":-77.021,
"status":"(V) Under construction, more than 50 percent complete",
"queue_date":"",
"estimated_cod":"2026-05-01",
"state":"DC"
},
{
"id":"EIA-67283-6569",
"name":"Six Flags Magic Mountain",
"iso":"CAISO",
"type":"generation",
"fuel_type":"solar",
"capacity_mw":10.0,
"lat":34.4282,
"lon":-118.5993,
"status":"(V) Under construction, more than 50 percent complete",
"queue_date":"",
"estimated_cod":"2026-05-01",
"state":"CA"
},
{
"id":"EIA-67283-6569B",
"name":"Six Flags Magic Mountain",
"iso":"CAISO",
"type":"generation",
"fuel_type":"battery",
"capacity_mw":2.0,
"lat":34.4282,
"lon":-118.5993,
"status":"(V) Under construction, more than 50 percent complete",
"queue_date":"",
"estimated_cod":"2026-05-01",
"state":"CA"
},
{
"id":"EIA-67348-ROGUE",
"name":"CPV Rogue's Wind, LLC",
"iso":"PJM",
"type":"generation",
"fuel_type":"wind",
"capacity_mw":114.0,
"lat":40.6981,
"lon":-78.6633,
"status":"(V) Under construction, more than 50 percent complete",
"queue_date":"",
"estimated_cod":"2026-05-01",
"state":"PA"
},
{
"id":"EIA-67501-GRBS",
"name":"Green River Energy Center - Hybrid",
"iso":"PACE",
"type":"generation",
"fuel_type":"battery",
"capacity_mw":400.0,
"lat":38.9987,
"lon":-111.1172,
"status":"(V) Under construction, more than 50 percent complete",
"queue_date":"",
"estimated_cod":"2026-05-01",
"state":"UT"
},
{
"id":"EIA-67501-GRPV",
"name":"Green River Energy Center - Hybrid",
"iso":"PACE",
"type":"generation",
"fuel_type":"solar",
"capacity_mw":400.0,
"lat":38.9987,
"lon":-111.1172,
"status":"(V) Under construction, more than 50 percent complete",
"queue_date":"",
"estimated_cod":"2026-05-01",
"state":"UT"
},
{
"id":"EIA-67654-DESTS",
"name":"Destiny Storage",
"iso":"ERCOT",
"type":"generation",
"fuel_type":"battery",
"capacity_mw":200.0,
"lat":29.8872,
"lon":-95.0237,
"status":"(U) Under construction, less than or equal to 50 percent complete",
"queue_date":"",
"estimated_cod":"2026-05-01",
"state":"TX"
},
{
"id":"EIA-67701-AS1",
"name":"Ashwood Solar I",
"iso":"LGEE",
"type":"generation",
"fuel_type":"solar",
"capacity_mw":86.0,
"lat":37.0234,
"lon":-88.0805,
"status":"(TS) Construction complete, but not yet in commercial operation",
"queue_date":"",
"estimated_cod":"2026-05-01",
"state":"KY"
},
{
"id":"EIA-67754-FSCSP",
"name":"Fish Creek Solar Park",
"iso":"MISO",
"type":"generation",
"fuel_type":"solar",
"capacity_mw":146.2,
"lat":43.1217,
"lon":-85.0117,
"status":"(TS) Construction complete, but not yet in commercial operation",
"queue_date":"",
"estimated_cod":"2026-05-01",
"state":"MI"
},
{
"id":"EIA-67837-RAYRS",
"name":"Ray Ranch Solar",
"iso":"ERCOT",
"type":"generation",
"fuel_type":"solar",
"capacity_mw":255.2,
"lat":28.628,
"lon":-97.724,
"status":"(TS) Construction complete, but not yet in commercial operation",
"queue_date":"",
"estimated_cod":"2026-05-01",
"state":"TX"
},
{
"id":"EIA-67976-GEN01",
"name":"Cattlemen Solar II",
"iso":"ERCOT",
"type":"generation",
"fuel_type":"solar",
"capacity_mw":200.0,
"lat":31.0836,
"lon":-96.8573,
"status":"(TS) Construction complete, but not yet in commercial operation",
"queue_date":"",
"estimated_cod":"2026-05-01",
"state":"TX"
},
{
"id":"EIA-68001-OLHAY",
"name":"Old Hayneville Solar, LLC",
"iso":"SOCO",
"type":"generation",
"fuel_type":"solar",
"capacity_mw":80.0,
"lat":32.3176,
"lon":-86.4112,
"status":"(V) Under construction, more than 50 percent complete",
"queue_date":"",
"estimated_cod":"2026-05-01",
"state":"AL"
},
{
"id":"EIA-68002-FOLEY",
"name":"Foley Solar, LLC",
"iso":"SOCO",
"type":"generation",
"fuel_type":"solar",
"capacity_mw":80.0,
"lat":30.3775,
"lon":-87.7275,
"status":"(TS) Construction complete, but not yet in commercial operation",
"queue_date":"",
"estimated_cod":"2026-05-01",
"state":"AL"
},
{
"id":"EIA-68009-SB12",
"name":"Saltbranch 2",
"iso":"SPP",
"type":"generation",
"fuel_type":"solar",
"capacity_mw":73.0,
"lat":36.3316,
"lon":-95.2293,
"status":"(V) Under construction, more than 50 percent complete",
"queue_date":"",
"estimated_cod":"2026-05-01",
"state":"OK"
},
{
"id":"EIA-68065-CHILS",
"name":"Chillingham Solar",
"iso":"ERCOT",
"type":"generation",
"fuel_type":"solar",
"capacity_mw":350.0,
"lat":31.006,
"lon":-97.262,
"status":"(TS) Construction complete, but not yet in commercial operation",
"queue_date":"",
"estimated_cod":"2026-05-01",
"state":"TX"
},
{
"id":"EIA-68127-CH424",
"name":"Bensenville Ind Park 4-SLCHI424",
"iso":"PJM",
"type":"generation",
"fuel_type":"solar",
"capacity_mw":1.7,
"lat":41.9839,
"lon":-87.9517,
"status":"(V) Under construction, more than 50 percent complete",
"queue_date":"",
"estimated_cod":"2026-05-01",
"state":"IL"
},
{
"id":"EIA-68326-MILL2",
"name":"SR Millington II",
"iso":"TVA",
"type":"generation",
"fuel_type":"solar",
"capacity_mw":74.9,
"lat":35.3583,
"lon":-89.8458,
"status":"(V) Under construction, more than 50 percent complete",
"queue_date":"",
"estimated_cod":"2026-05-01",
"state":"TN"
},
{
"id":"EIA-68414-CC8",
"name":"Catclaw Solar",
"iso":"AZPS",
"type":"generation",
"fuel_type":"solar",
"capacity_mw":200.0,
"lat":33.5806,
"lon":-112.6867,
"status":"(V) Under construction, more than 50 percent complete",
"queue_date":"",
"estimated_cod":"2026-05-01",
"state":"AZ"
},
{
"id":"EIA-68414-SV",
"name":"Catclaw Solar",
"iso":"AZPS",
"type":"generation",
"fuel_type":"battery",
"capacity_mw":250.0,
"lat":33.5806,
"lon":-112.6867,
"status":"(U) Under construction, less than or equal to 50 percent complete",
"queue_date":"",
"estimated_cod":"2026-05-01",
"state":"AZ"
},
{
"id":"EIA-68487-PVS2",
"name":"Pleasant Valley Solar 2 Project",
"iso":"IPCO",
"type":"generation",
"fuel_type":"solar",
"capacity_mw":125.0,
"lat":43.3278,
"lon":-115.9882,
"status":"(U) Under construction, less than or equal to 50 percent complete",
"queue_date":"",
"estimated_cod":"2026-05-01",
"state":"ID"
},
{
"id":"EIA-68500-CWH2",
"name":"Crowned Heron 2 - Storage, LLC",
"iso":"ERCOT",
"type":"generation",
"fuel_type":"battery",
"capacity_mw":150.0,
"lat":29.4827,
"lon":-95.62,
"status":"(V) Under construction, more than 50 percent complete",
"queue_date":"",
"estimated_cod":"2026-05-01",
"state":"TX"
},
{
"id":"EIA-68501-PV1",
"name":"McFarland Schools Customer Hosted",
"iso":"MISO",
"type":"generation",
"fuel_type":"solar",
"capacity_mw":1.4,
"lat":43.0237,
"lon":-89.2674,
"status":"(V) Under construction, more than 50 percent complete",
"queue_date":"",
"estimated_cod":"2026-05-01",
"state":"WI"
},
{
"id":"EIA-68542-7170B",
"name":"Palmdale Water District 6MG Tank",
"iso":"CAISO",
"type":"generation",
"fuel_type":"battery",
"capacity_mw":0.3,
"lat":34.558,
"lon":-118.1187,
"status":"(V) Under construction, more than 50 percent complete",
"queue_date":"",
"estimated_cod":"2026-05-01",
"state":"CA"
},
{
"id":"EIA-68542-7170G",
"name":"Palmdale Water District 6MG Tank",
"iso":"CAISO",
"type":"generation",
"fuel_type":"solar",
"capacity_mw":1.0,
"lat":34.558,
"lon":-118.1187,
"status":"(V) Under construction, more than 50 percent complete",
"queue_date":"",
"estimated_cod":"2026-05-01",
"state":"CA"
},
{
"id":"EIA-68597-PV1",
"name":"Mingoville PV I",
"iso":"PJM",
"type":"generation",
"fuel_type":"solar",
"capacity_mw":3.0,
"lat":40.902,
"lon":-77.685,
"status":"(U) Under construction, less than or equal to 50 percent complete",
"queue_date":"",
"estimated_cod":"2026-05-01",
"state":"PA"
},
{
"id":"EIA-68598-PV1",
"name":"Mingoville PV II",
"iso":"PJM",
"type":"generation",
"fuel_type":"solar",
"capacity_mw":2.0,
"lat":40.902,
"lon":-77.685,
"status":"(U) Under construction, less than or equal to 50 percent complete",
"queue_date":"",
"estimated_cod":"2026-05-01",
"state":"PA"
},
{
"id":"EIA-68913-12342",
"name":"Padua 2",
"iso":"ERCOT",
"type":"generation",
"fuel_type":"battery",
"capacity_mw":150.0,
"lat":29.3251,
"lon":-98.3256,
"status":"(V) Under construction, more than 50 percent complete",
"queue_date":"",
"estimated_cod":"2026-05-01",
"state":"TX"
},
{
"id":"EIA-68933-CORB",
"name":"SV CSG Corbell",
"iso":"MISO",
"type":"generation",
"fuel_type":"solar",
"capacity_mw":2.0,
"lat":37.7583,
"lon":-89.0575,
"status":"(V) Under construction, more than 50 percent complete",
"queue_date":"",
"estimated_cod":"2026-05-01",
"state":"IL"
},
{
"id":"EIA-68936-NAP1",
"name":"SV CSG Naplate",
"iso":"MISO",
"type":"generation",
"fuel_type":"solar",
"capacity_mw":3.9,
"lat":41.3322,
"lon":-88.8848,
"status":"(U) Under construction, less than or equal to 50 percent complete",
"queue_date":"",
"estimated_cod":"2026-05-01",
"state":"IL"
},
{
"id":"EIA-68937-RDR2",
"name":"Roadrunner Reserve Phase 2",
"iso":"TEPC",
"type":"generation",
"fuel_type":"battery",
"capacity_mw":200.0,
"lat":32.073,
"lon":-100.821,
"status":"(U) Under construction, less than or equal to 50 percent complete",
"queue_date":"",
"estimated_cod":"2026-05-01",
"state":"AZ"
},
{
"id":"EIA-68974-13526",
"name":"Ashley Solar LLC PV",
"iso":"MISO",
"type":"generation",
"fuel_type":"solar",
"capacity_mw":5.0,
"lat":38.3253,
"lon":-89.1989,
"status":"(U) Under construction, less than or equal to 50 percent complete",
"queue_date":"",
"estimated_cod":"2026-05-01",
"state":"IL"
},
{
"id":"EIA-68980-GRBF",
"name":"Gonzaga Ridge Battery Facility",
"iso":"CAISO",
"type":"generation",
"fuel_type":"battery",
"capacity_mw":51.8,
"lat":37.0658,
"lon":-121.1929,
"status":"(V) Under construction, more than 50 percent complete",
"queue_date":"",
"estimated_cod":"2026-05-01",
"state":"CA"
},
{
"id":"EIA-68981-GRWF1",
"name":"Gonzaga Ridge Wind Farm",
"iso":"CAISO",
"type":"generation",
"fuel_type":"wind",
"capacity_mw":40.3,
"lat":37.0658,
"lon":-121.1294,
"status":"(V) Under construction, more than 50 percent complete",
"queue_date":"",
"estimated_cod":"2026-05-01",
"state":"CA"
},